order_id,order_purchase_timestamp,shipping_limit_date,order_delivered_customer_date,total_delivery_time_days,price,delivery_status,geolocation_lat,geolocation_lng,customer_city,customer_state,customer_zip_code_prefix
aa73d1076ba6c6f19de6990bc7401acb,2018-08-20 12:03:54,2018-08-24 15:32:28,2018-08-29 00:51:33,8.533090277777777,29.9,Late,-23.683035524054752,-46.55515597594526,sao bernardo do campo,SP,9750
49fe48be474d1436868ce63799d879ad,2018-04-29 19:32:34,2018-05-04 19:50:14,2018-05-04 19:34:42,5.001481481481481,21.7,In Time,-23.335533031363607,-51.170750112095554,londrina,PR,86050
47c343d8d62ab013486081084cdffa2d,2017-08-14 12:00:32,2017-08-18 13:03:59,2017-08-30 20:43:31,16.36318287037037,261.0,Late,-12.99084593634027,-38.487492323606546,salvador,BA,40285
6a83e5c040d9fc9d14c1035925ecee1f,2018-07-02 18:42:38,2018-07-09 19:31:13,2018-07-27 16:48:39,24.920844907407407,89.9,Late,-16.682252716498972,-49.314622996605515,goiania,GO,74423
8ed33ce2fa4294f5f8d8967467a26b23,2018-03-29 12:41:26,2018-04-04 12:55:31,2018-04-05 21:04:11,7.349131944444444,24.9,Late,-24.007725194249883,-46.41295069869848,praia grande,SP,11700
5738b1361143b2ba3e59fcb5dffc7114,2017-11-27 16:58:04,2017-12-01 17:20:03,2018-01-30 18:32:21,64.06547453703703,139.9,Late,-22.822631453841595,-43.046795082950254,sao goncalo,RJ,24445
26e3359543dcca06c00f6f8e77b35358,2017-12-10 16:17:56,2017-12-14 16:30:35,2017-12-21 17:30:03,11.050081018518519,69.9,Late,-25.997022993332944,-52.56589934422787,coronel vivida,PR,85550
681dcd4b4304448b7619c295f1048482,2017-05-18 08:06:36,2017-05-24 08:15:17,2017-05-26 11:51:34,8.156226851851851,309.9,Late,-23.57956909512453,-46.64194095745629,sao paulo,SP,4013
22b26e86702b56aa7da5d50d7aaacdcb,2017-11-14 20:32:00,2017-11-21 20:46:34,2017-11-30 16:11:41,15.819224537037037,129.99,Late,-7.15680719531295,-34.87197832490789,joao pessoa,PB,58071
2262f6e2778c369031168e981215c70d,2017-07-17 16:18:44,2017-07-26 16:32:26,2017-07-31 21:10:24,14.202546296296296,319.0,Late,-22.903606655837066,-43.09872860046745,niteroi,RJ,24230
175e7244409a1c34674cdd3407e25808,2017-08-22 12:49:29,2017-09-01 13:07:30,2017-09-05 18:57:36,14.255636574074074,180.0,Late,-26.824170719401003,-49.272263146402004,timbo,SC,89120
84a2a019c5e35c1b7930e967601312b7,2018-03-19 21:08:09,2018-03-26 03:48:40,2018-03-27 15:33:22,7.767511574074074,22.7,Late,-23.550126559003346,-46.84260174581839,carapicuiba,SP,6382
104aeb5f53808a5bae6b96a7784a2b04,2017-11-28 14:46:00,2017-12-04 15:06:50,2017-12-09 14:55:46,11.006782407407407,7.0,Late,-22.90400147155059,-43.11165339647411,niteroi,RJ,24220
85415bb7b40d0a71544ed9d6dc1d9d02,2017-07-17 19:13:02,2017-07-21 19:25:12,2017-07-24 19:11:41,6.9990625,44.9,Late,-22.891938119746374,-43.59780872863405,rio de janeiro,RJ,23062
5dbd99a1d0b13836606e44c8efe79fa9,2017-06-15 10:10:40,2017-06-22 03:33:44,2017-06-28 16:15:07,13.253090277777778,79.9,Late,-23.21690693366611,-46.8756643097409,jundiai,SP,13206
56a51e881f6f95bd1546e9e1e49254f5,2018-04-27 19:48:04,2018-05-07 20:10:48,2018-05-10 20:51:28,13.044027777777778,55.0,Late,-17.56869901284716,-52.55357849430638,mineiros,GO,75830
73c8ab38f07dc94389065f7eba4f297a,2017-12-13 14:21:15,2017-12-21 02:30:41,2017-12-28 09:05:34,14.780775462962962,59.0,Late,-23.955918202608345,-46.337773829043726,santos,SP,11065
bd4e6b477357e3e0a953996ceff60c2f,2017-10-08 12:32:37,2017-10-13 12:49:16,2017-10-16 18:37:51,8.25363425925926,79.9,Late,-21.78455797281394,-48.563746481900786,nova europa,SP,14920
44f9bb85e9dfb3f106dd017fbd8b8006,2018-04-20 22:20:00,2018-04-25 23:31:20,2018-05-01 16:02:34,10.737893518518518,45.0,Late,-22.95273212268446,-43.18799415223038,rio de janeiro,RJ,22270
39597e816452d67775b185a4de2f583f,2017-07-27 18:05:53,2017-08-03 02:23:39,2017-08-11 21:22:02,15.136215277777778,99.9,Late,-22.87234310602243,-42.04640241025767,cabo frio,RJ,28911
324687cda932c3d68b91cb0fb2ea653e,2018-08-14 12:21:45,2018-08-17 12:15:16,2018-08-20 20:03:09,6.320416666666667,195.91,Late,-22.886015197328224,-43.27414876770147,rio de janeiro,RJ,20771
3311bcf8b85d70179b7a3addec72e5cb,2018-06-18 08:56:07,2018-06-20 09:13:59,2018-06-22 21:42:02,4.531886574074074,69.99,Late,-19.91678979323671,-43.916328256592976,belo horizonte,MG,31010
841c2a8a7251be9ce05b92ec875a1f7c,2017-05-02 12:54:47,2017-05-08 13:15:07,2017-05-10 10:56:37,7.917939814814815,114.9,Late,-23.8512501306785,-46.14263360796448,bertioga,SP,11250
eac90790570a2c6eae97928fb9a3383e,2018-01-20 22:59:25,2018-01-24 23:20:15,2018-01-24 17:25:41,3.768240740740741,493.0,In Time,-23.575790617837026,-46.741010066737914,sao paulo,SP,5588
554ecc3c2cd2aa5e836523bcf915260a,2017-03-10 10:01:13,2017-03-16 10:01:13,2017-03-22 14:44:32,12.196747685185185,22.37,Late,-23.433751676380638,-45.07976312378098,ubatuba,SP,11680
af9ce0d4f36308fcf461b3f497c24bcb,2018-03-15 09:38:31,2018-03-21 09:50:48,2018-03-28 21:12:29,13.481921296296296,149.9,Late,-23.509883284205674,-46.44705285651218,sao paulo,SP,8040
a92b5b0bf2a617da3f9c3b28486798a8,2017-08-05 19:14:48,2017-08-14 04:04:27,2017-08-11 16:50:12,5.899583333333333,26.5,In Time,-17.811153679908106,-50.58917951958801,santa helena de goias,GO,75920
766033ca0a01f26b46dfccd2ee59cf9c,2018-07-03 19:20:59,2018-07-09 20:31:52,2018-07-10 13:43:49,6.765856481481482,35.0,Late,-22.91692762003006,-43.23033614905639,rio de janeiro,RJ,20511
74c1ccaaf1d9e3db6f82ed04fc985989,2017-06-07 02:53:27,2017-06-14 02:50:13,2017-06-19 19:07:39,12.676527777777778,69.0,Late,-30.001484075475755,-50.154172494388725,tramandai,RS,95590
4a3798db024e5f7ec925bd803ec5567c,2018-07-08 21:59:51,2018-07-30 22:10:09,2018-07-28 11:20:45,19.556180555555557,79.9,In Time,-23.62393020650695,-46.64035084469945,sao paulo,SP,4045
45ece9d703e8c043b9e825c88a00c561,2017-03-07 13:38:52,2017-03-15 02:35:33,2017-03-17 09:11:59,9.814664351851851,15.18,Late,-22.981563063823728,-43.23665628157995,rio de janeiro,RJ,22451
b89c3bccb55bf39d693030905c3a2326,2018-08-07 19:29:06,2018-08-09 19:44:54,2018-08-15 01:34:46,7.253935185185185,119.0,Late,-25.404051070488826,-49.20056151832187,curitiba,PR,82840
d701dc60f61795a62070fa2494b6691a,2018-01-05 19:15:37,2018-01-12 19:27:42,2018-01-16 20:58:52,11.071701388888888,12.49,Late,-22.908560615326863,-43.09801755938032,niteroi,RJ,24220
7bff8d75c2707a1b707a85ca98238f71,2017-06-28 19:33:24,2017-07-04 19:50:11,2017-07-07 20:45:27,9.050034722222222,58.2,Late,-23.01435303857696,-43.45771580737496,rio de janeiro,RJ,22790
ebb499c608d356e59ebb827f62b25712,2018-07-24 21:59:37,2018-07-31 03:24:27,2018-07-30 15:07:05,5.713518518518518,16.22,In Time,-19.81277052810448,-43.19440084423592,joao monlevade,MG,35930
8c7d20a74234353d921ace530816e2e5,2018-04-16 21:52:12,2018-04-22 22:31:31,2018-04-26 19:52:01,9.916539351851851,199.0,Late,-26.044478708092267,-53.054781246490556,francisco beltrao,PR,85603
982f11c6a768ad4cd2c08c45b259e5a8,2018-05-22 22:45:50,2018-05-29 00:38:56,2018-05-24 15:42:00,1.7056712962962963,61.9,Quick,-23.574966422701838,-46.53391893381034,sao paulo,SP,3380
ef59d8fd00ca64c9dea7310396e1bed2,2017-04-25 14:57:05,2017-05-02 15:10:14,2017-05-10 12:28:06,14.896539351851851,229.9,Late,-22.865530641569624,-43.00420138929778,sao goncalo,RJ,24751
d9d6038fc6b49e88d43af0a6d43f0846,2018-04-27 23:15:52,2018-05-03 23:30:28,2018-05-02 18:41:29,4.809456018518518,262.39,In Time,-23.745168932829383,-46.57891448626577,sao bernardo do campo,SP,9841
d9d133e8194b34d22ce9157f4f2ab959,2017-07-19 15:38:45,2017-07-28 15:55:14,2017-07-22 12:57:30,2.8880208333333335,19.99,Quick,-23.691525631975292,-46.52419809048413,santo andre,SP,9180
99441b33a55fabb1cf8b56dc883a29e9,2018-07-26 10:56:20,2018-07-30 21:05:13,2018-08-02 16:26:44,7.229444444444445,29.99,Late,-16.493875566102144,-39.07557415858931,porto seguro,BA,45816
1702dd469ef502af250c4b02c8ab4a4f,2017-12-02 15:43:09,2017-12-07 15:50:51,2017-12-13 19:09:05,11.143009259259259,132.76,Late,-23.53529138467313,-46.71725695934556,sao paulo,SP,5083
8dca7901c45e1525ad654814a7db9eea,2018-01-05 01:35:24,2018-01-11 01:47:53,2018-01-08 19:55:23,3.763877314814815,255.0,In Time,-23.95725457146977,-46.33282113820769,santos,SP,11075
74e85c9073bd0cf474433bd75c31aac2,2017-04-05 13:47:30,2017-04-11 13:55:12,2017-04-10 15:57:47,5.0904745370370375,42.0,In Time,-24.96095658670457,-53.46534185636795,cascavel,PR,85801
3f26faa9494be61027d0c04483436498,2018-03-23 09:34:43,2018-03-29 09:50:37,2018-03-26 23:28:46,3.579201388888889,39.0,In Time,-23.678177982540724,-46.41263278694169,maua,SP,9330
885c678a9ef215e384152a0b5c203552,2017-12-21 20:01:58,2017-12-28 20:14:23,2018-01-04 16:49:33,13.866377314814814,79.0,Late,-16.72697093366611,-43.868481983207346,montes claros,MG,39400
2fc7fe2e06e84beba127768beb2f705e,2018-08-03 00:36:26,2018-08-09 00:50:14,2018-08-13 23:06:44,10.937708333333333,110.32,Late,-23.536185065785627,-46.784404723151894,osasco,SP,6086
53e73aeaae3e1e18a47d623632bd11c8,2018-02-10 15:26:54,2018-02-15 15:48:23,2018-02-27 21:29:48,17.25201388888889,74.9,Late,-23.966896418356992,-46.33879171022246,santos,SP,11060
0b4379c15168b7275dd2ee52a06f4294,2017-10-04 13:05:06,2017-10-10 13:24:28,2017-10-11 23:33:55,7.436678240740741,45.9,Late,-19.935021813491808,-43.96659951056022,belo horizonte,MG,30431
e186fd488370885035932d8efab4212f,2018-08-02 22:27:23,2018-08-08 22:43:54,2018-08-08 22:12:40,5.989780092592593,59.9,In Time,-27.001667999999945,-48.62692249999995,balneario camboriu,SC,88330
c6a2bdf8fa25475ae4031f5138c716fc,2018-08-14 17:09:50,2018-08-20 17:25:22,2018-08-17 16:50:33,2.9866087962962964,39.8,Quick,-23.145563482110827,-46.992972577990656,jundiai,SP,13212
fe349b1979d7bcce7bce8df71ca6a902,2018-02-25 11:45:07,2018-03-01 12:09:30,2018-03-23 19:50:49,26.337291666666665,204.0,Late,-9.431683049510879,-40.50099885654903,juazeiro,BA,48900
e466da8b1fce311e8469cb62530c18a9,2018-08-16 05:54:30,2018-08-23 06:10:06,2018-08-17 20:28:25,1.606886574074074,139.34,Quick,-23.539863908130886,-46.67923753872119,sao paulo,SP,5016
84225c358d07c8f17a45d20e4e126e73,2017-05-31 22:39:38,2017-06-06 22:50:17,2017-06-10 06:15:56,9.316875,69.0,Late,-23.68942102553522,-46.71352395614291,sao paulo,SP,4785
0e9ed1bc6589695f10e03b8eca833201,2018-08-20 03:21:20,2018-08-23 14:10:52,2018-08-23 21:57:45,3.775289351851852,118.13,Late,-22.904649265231324,-43.094766770753104,niteroi,RJ,24230
15b43c7df18210a4d78cb043992d1ef5,2018-07-04 16:23:59,2018-07-10 17:31:30,2018-07-11 15:28:22,6.961377314814815,79.99,Late,-23.448000300305836,-46.52537766694559,guarulhos,SP,7123
3be9765eafd8ecf60d00e05f4cb35ad1,2018-01-24 11:55:40,2018-01-31 02:57:41,2018-02-05 21:42:40,12.407638888888888,35.99,Late,-23.591724150152913,-46.62646630613423,sao paulo,SP,4116
c09b25f84f52644793916c9d834ee48b,2017-11-13 00:19:54,2017-11-21 02:55:32,2017-11-21 19:39:37,8.805358796296296,21.33,Late,-22.984786699749215,-47.102618549623834,campinas,SP,13052
3227045c7007663566ae3d19aed8cca7,2018-07-28 13:20:43,2018-08-02 16:05:20,2018-08-03 19:42:28,6.265104166666666,97.0,Late,-22.755359503750913,-47.17721253136361,paulinia,SP,13145
53be479f3b3486d26abed234b365a359,2017-08-01 09:24:06,2017-08-07 17:35:16,2017-08-22 22:02:58,21.52699074074074,434.0,Late,-15.647048685815694,-56.149507550377955,varzea grande,MT,78140
96c7412c14bcdf2793e352dee66be6a7,2017-09-12 16:08:02,2017-09-21 16:27:27,2017-09-18 19:37:52,6.145717592592592,229.0,In Time,-22.89998082345891,-43.10270742568772,niteroi,RJ,24230
f8a8132f707c621386a1cfe24cebac20,2018-03-27 21:06:47,2018-04-09 21:15:19,2018-04-09 19:24:21,12.92886574074074,37.0,In Time,-20.528678442242526,-49.31522140342105,nova granada,SP,15440
2a940654991b7eaeb541171e5e1d497f,2017-02-07 15:48:56,2017-02-11 15:48:56,2017-02-17 12:47:31,9.874016203703704,289.99,Late,-22.98370352207277,-43.217153999999994,rio de janeiro,RJ,22440
d2f87ac39d8b31e615528ca52e5c8434,2018-04-04 09:12:02,2018-04-10 09:31:01,2018-04-10 15:38:49,6.268599537037037,29.68,Late,-23.51682528005074,-47.50708837844071,sorocaba,SP,18051
eceb81b6addc38540d1ba8e218c0c896,2017-09-15 23:06:29,2017-09-20 23:15:25,2017-10-03 17:59:08,17.7865625,85.4,Late,-25.745974110719544,-53.05036206643173,dois vizinhos,PR,85660
fd47237d0dcf975ae9a511199ef692cb,2018-03-13 11:34:35,2018-03-19 12:08:11,2018-03-27 18:09:41,14.274375,110.0,Late,-22.1536913448653,-51.17564468870672,martinopolis,SP,19500
6a3c03b4d8dd9b6cf04b7c09c5cf6627,2017-12-05 08:48:23,2017-12-13 11:03:43,2018-01-10 19:57:08,36.46440972222222,29.9,Late,-22.91218663113857,-43.19048885483873,rio de janeiro,RJ,20230
6f781fbfaf95fb90fb59de9f72e78e5c,2018-07-18 19:52:04,2018-07-25 20:05:17,2018-07-24 19:48:46,5.997708333333334,29.9,In Time,-21.093974146413327,-45.55876241034556,boa esperanca,MG,37170
ccf1316e3b24c311e74194b631df9301,2018-01-05 12:54:24,2018-01-11 13:07:36,2018-01-13 00:32:05,7.484502314814815,89.0,Late,-16.170741670498302,-42.29610890698814,salinas,MG,39560
d82a297437092371e1c2278befb2314b,2018-07-31 08:27:18,2018-08-03 02:45:17,2018-08-08 12:08:29,8.153599537037037,64.8,Late,-12.224608390113405,-38.96722192683613,feira de santana,BA,44032
52d4b2f313a33c4f6ae0f774f4d9221e,2018-02-16 16:59:52,2018-02-22 16:15:25,2018-03-08 00:49:49,19.32635416666667,54.99,Late,-8.112062828755253,-34.89562757063306,recife,PE,51020
97352341e218f0089a070b1be89f47bf,2018-06-14 08:38:14,2018-06-18 08:58:43,2018-06-19 21:15:39,5.5259837962962965,52.99,Late,-19.93554129854527,-43.953091164194134,belo horizonte,MG,30441
bd80b9345b95ad0a5ce3c064ed1b978e,2017-07-27 08:42:12,2017-08-03 10:43:38,2017-08-08 17:02:44,12.347592592592592,182.0,Late,-22.91271367055225,-43.18823314542107,rio de janeiro,RJ,20231
4d6ff00ff70bc8add58ab6f275c2b61d,2017-09-18 20:06:21,2017-10-04 09:30:22,2017-10-09 11:28:55,20.640671296296297,66.99,Late,-12.887455507238348,-38.33600758525447,lauro de freitas,BA,42700
38035a76fee1437dca92e94b3e057af6,2018-02-23 09:35:40,2018-03-01 09:50:37,2018-03-19 14:18:45,24.196585648148147,45.9,Late,-25.472095052166964,-49.308013346788655,curitiba,PR,80330
d9c5d64c3fa1b1abf251ddf4cb2683ee,2017-12-02 17:28:34,2017-12-11 04:14:00,2017-12-14 21:12:48,12.155717592592593,9.99,Late,-23.551112073835704,-46.65366555883207,sao paulo,SP,1415
77af320be1815e066c2ac8510e9402b6,2018-05-09 10:55:30,2018-05-15 11:11:45,2018-05-11 12:34:20,2.0686342592592593,39.99,Quick,-18.673055398398066,-43.07955267739534,sabinopolis,MG,39750
ca8fdc1b534df33544ec27fed6dc5fbd,2017-10-03 15:29:51,2017-10-09 15:49:39,2017-10-13 17:08:04,10.068206018518518,249.9,Late,-22.900490444630375,-43.17843858756995,rio de janeiro,RJ,20091
0d88c1807ea23596e9a3222c2aad549d,2018-01-30 17:30:44,2018-02-05 17:57:58,2018-02-15 12:56:36,15.80962962962963,12.9,Late,-19.938196519562606,-43.91482484318198,belo horizonte,MG,30220
18e1040478d9e22d2f785cd537be7220,2017-11-20 14:31:05,2017-11-24 14:46:41,2017-12-02 00:37:15,11.420949074074073,19.99,Late,-22.904917997266768,-43.09786062954351,niteroi,RJ,24230
30afdf98bd76676a199127199643a168,2017-11-16 02:19:05,2017-11-22 02:30:20,2017-11-24 18:14:35,8.663541666666667,38.9,Late,-22.39722138202525,-41.81991163479363,macae,RJ,27930
3069c59ca4d7b71a93c01aa815b34ec3,2017-12-13 12:37:46,2017-12-19 12:50:32,2017-12-22 18:48:04,9.257152777777778,209.0,Late,-20.81756157642311,-49.388576749114016,sao jose do rio preto,SP,15015
95640f66424853e44e3ffb0cdd8974f6,2018-08-05 11:38:06,2018-08-09 11:50:11,2018-08-16 15:58:57,11.181145833333334,520.0,Late,-22.627727143706398,-47.05036755768311,holambra,SP,13825
13bc75256bad09f3273a88f49cff00e1,2018-08-13 21:50:00,2018-08-15 22:04:16,2018-08-15 21:56:46,2.004699074074074,158.0,Quick,-23.542974344208115,-46.26494433202311,mogi das cruzes,SP,8750
fe20459ba8839f9d9a187ccea24bb24a,2017-12-03 23:00:25,2017-12-07 23:31:27,2017-12-27 18:04:42,23.794641203703705,139.0,Late,-22.6631025,-50.39854199999999,assis,SP,19815
f8d19a0283152c2a14277f39a74da971,2017-10-05 12:27:04,2017-10-13 12:49:21,2017-10-13 16:38:06,8.174328703703704,56.99,Late,-17.119872601978397,-43.807034615943216,bocaiuva,MG,39390
2c04042e578878f9e172a2916e039ab1,2018-05-17 16:36:10,2018-06-11 00:14:41,2018-06-05 00:36:19,18.3334375,239.0,In Time,-22.984522658895486,-43.20716082514857,rio de janeiro,RJ,22410
172589c3df7261dca954a6c662c38acc,2018-01-15 21:50:36,2018-01-24 03:34:29,2018-01-18 16:15:14,2.7671064814814814,69.9,Quick,-23.642738559995816,-46.54374432001256,santo andre,SP,9070
396a192aba5ce4ea3612711cf5d6bfc1,2018-06-08 22:23:18,2018-06-11 22:31:25,2018-06-19 21:03:11,10.944363425925927,45.0,Late,-21.24070572982361,-45.23470450751558,nepomuceno,MG,37250
5d84d2af140f3d69293995b16e8f8eeb,2017-05-18 15:38:31,2017-05-25 04:15:12,2017-05-29 12:33:59,10.871851851851853,208.9,Late,-23.45842717663982,-46.495754940448755,guarulhos,SP,7190
1c7fe02ac4c7be50c59afb295cf85b89,2018-01-26 13:22:09,2018-02-13 03:47:31,2018-02-20 14:18:51,25.039375,106.99,Late,-22.259391381015163,-45.696797674750265,santa rita do sapucai,MG,37540
3735a11cbccd8916dbc9ccf5f671cc2c,2017-08-27 07:43:57,2017-08-31 07:55:17,2017-09-01 18:32:17,5.450231481481482,99.0,Late,-20.06629384554217,-44.55657270439459,itauna,MG,35680
b418f47f5f940ca554e3010f3c009c8f,2017-11-24 09:36:20,2017-11-30 10:12:42,2018-01-04 17:24:53,41.325381944444445,89.9,Late,-30.029986647727778,-51.230202388636656,porto alegre,RS,90020
35b8e54d765e6b217e2dc5ab34f6b323,2016-10-06 12:23:07,2016-10-11 03:10:10,,,38.0,Not Delivered Yet,-21.77816757400933,-46.5621628941136,pocos de caldas,MG,37701
c99763ba8bcad2845131b6e9d2f203fc,2017-08-27 17:51:48,2017-09-04 18:04:34,2017-09-18 19:57:42,22.087430555555557,39.0,Late,-22.94399103082325,-43.018052121654314,niteroi,RJ,24348
c505a1999c5ad6aacc8339242d824073,2017-03-25 21:22:15,2017-03-29 21:31:41,2017-04-21 10:08:23,26.532037037037036,299.0,Late,-27.662725404379977,-48.48496963321604,florianopolis,SC,88048
00789ce015e7e5791c7914f32bb4fad4,2017-06-28 23:31:33,2017-07-04 23:43:34,2017-07-17 18:35:36,18.794479166666665,154.0,Late,-23.014624727139957,-43.44944291306956,rio de janeiro,RJ,22790
bace36fac7a5dc678fe74da327ffb295,2017-12-04 21:10:09,2017-12-12 02:50:19,2018-01-04 23:35:32,31.10096064814815,179.99,Late,-22.917146416873454,-43.62490075047614,rio de janeiro,RJ,23587
b9222683e55758e925b1931565b4f343,2017-09-09 19:00:12,2017-09-14 19:10:24,2017-09-16 15:07:30,6.838402777777778,299.99,Late,-23.721804650332732,-46.564187285827174,sao bernardo do campo,SP,9810
d225c3985609ca7a3a65157d5311f0cd,2017-04-22 16:02:43,2017-04-27 16:15:16,2017-05-09 15:07:43,16.961805555555557,252.0,Late,-20.827647965422443,-49.396060206073464,sao jose do rio preto,SP,15090
7ed3afede9e4f41bb24283da88e6e91b,2017-02-22 20:39:31,2017-02-26 20:39:31,2017-03-02 12:21:50,7.654386574074074,7.8,Late,-21.162447838190317,-47.796544005828366,ribeirao preto,SP,14085
c8bcd3489cda84aa42f0605a7a25ad2e,2017-12-14 16:22:20,2017-12-21 02:51:49,2017-12-26 20:29:58,12.171967592592592,166.99,Late,-19.942171742166263,-43.95763834041202,belo horizonte,MG,30441
6d34c087b843ae0fdb296f15d948e45f,2018-06-20 19:11:56,2018-06-26 19:31:24,2018-06-29 17:21:38,8.923402777777778,235.9,Late,-24.490356522287627,-47.8398097044081,registro,SP,11900
a975a4d132e3cd7cb429e0deffc7cf8d,2018-08-05 13:45:33,2018-08-07 13:55:20,2018-08-10 14:58:48,5.050868055555555,134.9,Late,-22.963029610883456,-43.27515295530619,rio de janeiro,RJ,20531
698c0a83d7fbe733d10f2ca901f60117,2018-02-26 11:14:10,2018-03-02 11:31:06,2018-03-21 20:32:24,23.387662037037035,204.0,Late,-20.25740562753188,-40.27053080486481,vitoria,ES,29090
17fa7da2f2250f22adb5ca2578972618,2017-07-01 20:12:31,2017-07-20 20:15:15,2017-07-14 19:32:17,12.972060185185185,99.0,In Time,-23.00829632139767,-43.34564182999601,rio de janeiro,RJ,22631
594494c6edea77fb5699a429983c1e87,2017-06-27 13:06:58,2017-07-07 02:43:54,2017-07-04 15:34:44,7.102615740740741,205.0,In Time,-23.970390465433738,-46.33010274479199,santos,SP,11045
b23fef1fa296cd791a57b465a3dc3827,2018-06-05 18:22:13,2018-06-13 18:31:29,2018-06-14 14:47:49,8.851111111111111,125.02,Late,-23.18854699809541,-46.87061821259166,jundiai,SP,13218
72e5f9d054298a6554b1d7e7e4115c5a,2018-05-04 01:14:11,2018-05-10 01:30:26,2018-05-12 12:28:43,8.468425925925926,89.97,Late,-22.878726994180354,-43.10060219409834,niteroi,RJ,24130
fe92769bd4a74d953a29a3878ef19b9a,2017-10-12 18:14:57,2017-10-18 19:28:17,2017-10-25 20:44:26,13.103807870370371,117.3,Late,-20.336390406605098,-40.40355912528406,cariacica,ES,29148
dc3f21586424183d783b18a97b5bee0c,2018-01-21 09:12:35,2018-01-26 13:45:33,2018-02-02 22:54:15,12.570601851851851,36.0,Late,-23.15458773140211,-47.73697889791387,cerquilho,SP,18520
5a169456a6ecf7c4cbd88cdf18c23c83,2017-10-14 11:38:35,2017-10-19 13:13:22,2017-10-23 18:42:23,9.294305555555555,159.0,Late,-23.517065866214626,-47.25094380562715,aluminio,SP,18125
ec84e555ec0c06ea52e4cd6051f68802,2017-08-13 14:53:53,2017-08-17 15:05:18,2017-08-24 21:46:06,11.286261574074073,217.0,Late,-20.387635752986306,-43.50062189731084,ouro preto,MG,35400
da1d2907817d2c95b1f3e07c76d26bcc,2018-06-14 21:15:35,2018-06-19 21:30:49,2018-06-18 21:27:43,4.008425925925926,326.16,In Time,-23.429979177909836,-46.40153545060299,guarulhos,SP,7251
1a58f35be1cae85f27119089958d5c7a,2018-04-12 16:14:39,2018-04-19 12:50:53,2018-04-19 18:18:31,7.086018518518519,60.9,Late,-23.243634071378583,-45.911010443142835,sao jose dos campos,SP,12237
8604fcfcead42a46d4dddd51bbe86457,2017-06-30 09:36:35,2017-07-10 04:50:16,2017-07-18 18:57:36,18.389594907407407,189.9,Late,-22.40925569579533,-54.43828278816663,vicentina,MS,79710
388c070ce42d3ccaedfd15662e09631d,2018-04-21 03:25:21,2018-04-26 03:31:01,,,51.99,Not Delivered Yet,-22.92566741268944,-43.400638083652716,rio de janeiro,RJ,22713
a732abf936fdc135108293662d03b027,2017-09-13 16:45:10,2017-09-20 02:55:39,2017-09-25 20:37:44,12.16150462962963,47.49,Late,-30.03160449653755,-51.22938213918866,porto alegre,RS,90010
73c8ab38f07dc94389065f7eba4f297a,2017-12-13 14:21:15,2017-12-21 02:30:41,2017-12-28 09:05:34,14.780775462962962,59.0,Late,-23.949627401610016,-46.325829960038035,santos,SP,11065
d8c132b9c7b4a1c50aa55a1280e9496b,2017-11-24 17:52:12,2017-11-30 21:16:16,2017-12-06 21:27:05,12.149224537037037,199.9,Late,-29.998965121299477,-51.197617131282804,porto alegre,RS,90240
c39414c195d0f94c9d9c35e7c6ed4f1a,2018-08-01 11:57:29,2018-08-09 13:00:13,2018-08-16 15:51:53,15.162777777777778,125.0,Late,-23.49175966701098,-47.50431867964744,sorocaba,SP,18103
8fc2234b396d9118c8171d1770e9ad18,2018-01-31 16:15:52,2018-02-06 16:31:16,2018-02-16 21:36:55,16.222951388888887,190.83,Late,-19.977782670638458,-43.93910206980269,nova lima,MG,34006
e4020f274902a070b403d4f914dee557,2018-06-13 20:58:34,2018-06-17 21:20:11,2018-06-20 13:12:08,6.676087962962963,56.0,Late,-23.966980332794623,-46.33756651027178,santos,SP,11060
bfe53abc61788e6ed7f64c2d7ccb106c,2018-04-16 14:33:16,2018-04-20 14:51:07,2018-04-18 10:43:29,1.8404282407407409,48.9,Quick,-23.70068837928445,-46.554743175781766,sao bernardo do campo,SP,9725
0eee1a4b63289dc4fd740238702f8fe8,2017-04-11 21:22:09,2017-04-17 21:30:19,2017-04-18 10:18:19,6.53900462962963,129.99,Late,-22.92509939301822,-43.1994830725652,rio de janeiro,RJ,20251
79e2d134258914ae2184cb0a3116a802,2017-12-23 11:48:09,2017-12-29 11:54:32,2018-01-19 17:26:37,27.235046296296296,149.99,Late,-12.544132965380761,-55.741744874174245,sorriso,MT,78890
df4b824bd4343d1cb124a2a17a87be00,2017-04-04 14:13:05,2017-04-10 14:25:18,2017-04-11 13:45:46,6.981030092592593,175.0,Late,-26.404671068685445,-48.74482039530618,araquari,SC,89245
79a5b94dea7a9f15cc10b5c7b54c6774,2017-10-26 07:12:12,2017-11-01 07:27:26,2017-11-03 23:03:48,8.660833333333333,59.9,Late,-16.717098216486804,-43.81422403719199,montes claros,MG,39404
a15fc4ce7d1b1cd6ec005a2f267758d8,2018-08-14 14:29:53,2018-08-16 14:44:19,2018-08-20 13:58:31,5.978217592592593,160.0,Late,-19.48053762203344,-42.637894665652794,coronel fabriciano,MG,35171
dbc6163631edab2e963462a16fbd7e8d,2018-06-24 17:26:38,2018-06-29 17:59:11,2018-07-03 21:48:29,9.181840277777777,119.0,Late,-23.477913834197626,-45.07135554189541,ubatuba,SP,11680
3817aebb6b2eab8cb6e13f3d2f163216,2017-04-30 21:33:26,2017-05-09 21:42:24,2017-06-22 15:42:32,52.75631944444444,186.96,Late,-22.829834515119206,-43.271935657798956,rio de janeiro,RJ,21020
7cb5aaf8b7b7b439174c2e4efdf4c7a3,2016-10-06 10:13:53,2016-10-21 16:23:15,2016-11-07 13:14:44,32.125590277777775,109.99,Late,-26.848565701666477,-52.26128483767583,faxinal dos guedes,SC,89694
c0abe2d7400d2241004b893449bd4430,2017-11-12 15:32:07,2017-11-17 15:50:43,2017-11-21 19:45:54,9.176238425925925,146.0,Late,-23.98102677713655,-46.20516730045007,guaruja,SP,11443
28f0dbd673b8e80e38077292901b1fa6,2018-04-25 17:30:53,2018-05-02 17:52:41,2018-05-03 20:21:32,8.118506944444444,49.9,Late,-23.63498355716419,-45.43864275740102,caraguatatuba,SP,11673
58091d2b77a13202800dfb2a00879f51,2018-01-22 10:58:56,2018-01-26 14:53:16,2018-02-05 20:47:08,14.408472222222223,154.9,Late,-20.639533500000002,-43.796803499999996,conselheiro lafaiete,MG,36400
d7d3a4c2c9adeb4eb48ee89382f89a87,2018-05-01 21:36:26,2018-05-07 21:51:38,2018-05-08 16:12:16,6.7748842592592595,15.0,Late,-20.677330186306936,-43.77731647761507,conselheiro lafaiete,MG,36400
f0728a029e4b3ff3b00aef28de29e394,2017-12-20 14:17:03,2017-12-27 14:31:42,2017-12-26 15:59:09,6.0709027777777775,95.9,In Time,-22.921507195654794,-43.09318949792253,niteroi,RJ,24360
f6fb9f9b74dfe24666363e2b3dcd2dd2,2017-11-21 18:03:54,2017-11-27 18:10:20,,,129.99,Not Delivered Yet,-26.371281946156227,-52.84911256543364,sao lourenco do oeste,SC,89990
bd2e72e4a107f535d737c2c2a52a018d,2018-08-22 02:28:35,2018-08-29 02:44:20,2018-08-30 20:23:53,8.746736111111112,34.39,Late,-21.768592679183485,-48.822565210318004,ibitinga,SP,14940
cad5d696e0d7bf7f475ff4cb616e7cd1,2017-11-22 18:13:26,2017-11-28 18:26:32,2017-12-14 18:16:54,22.002407407407407,409.0,Late,-7.239284976792452,-35.873274480632766,campina grande,PB,58410
1f4409e522bbd17f0fcc7b9d1409fe8c,2017-11-05 15:57:07,2017-11-09 16:10:29,2017-11-18 16:38:43,13.028888888888888,69.9,Late,-23.697269864273792,-46.762516671244725,sao paulo,SP,4929
5b30af3b150295616c6564e91b8ec214,2017-07-22 16:49:50,2017-07-31 03:50:20,2017-08-04 18:39:44,13.076319444444444,279.9,Late,-22.84430663140323,-45.22863699037307,aparecida,SP,12570
ad9aa06b7c1aff45bb25d171973fc761,2017-11-24 23:52:46,2017-11-30 01:53:33,2017-12-18 20:53:35,23.87556712962963,116.9,Late,-18.71875676326473,-49.20007306774835,canapolis,MG,38380
9f9d2b35ac2defefacb5c123b82b2223,2018-04-04 19:59:17,2018-04-11 20:10:19,2018-04-07 01:51:24,2.244525462962963,99.0,Quick,-23.561230986958257,-46.77740518691221,osasco,SP,6033
7cc93b2925f1d8b88fbcd410b02bc5b5,2018-05-17 15:47:41,2018-05-22 02:31:19,2018-05-21 17:48:42,4.084039351851852,299.0,In Time,-23.662665660280474,-46.73660404731954,sao paulo,SP,5818
6a9db674b7643d03e5146b915949dbbe,2018-05-11 18:50:21,2018-05-17 19:08:21,2018-05-29 18:23:35,17.981412037037035,19.83,Late,-22.978270455190618,-43.198731871198696,rio de janeiro,RJ,22411
4548b28532019ff74082bf5b5ab11410,2018-07-16 13:25:21,2018-07-20 13:40:16,2018-07-27 21:48:25,11.349351851851852,89.0,Late,-15.793287072374577,-48.127078732420486,brasilia,DF,72255
fefbe15ebcd87ab3fb8577e635a8b31c,2018-03-08 21:11:34,2018-03-14 21:28:16,2018-03-20 20:14:01,11.960034722222222,19.9,Late,-23.96848800937415,-46.37301865393756,sao vicente,SP,11320
23ef69b3ace250bf5783e918620f3919,2018-01-10 18:54:07,2018-01-17 02:48:37,2018-01-26 12:05:03,15.715925925925927,426.99,Late,-22.70661346691256,-42.62041232329555,rio bonito,RJ,28800
79ce453b9e3dc21f91d306eb1df8bb2a,2017-08-16 16:24:16,2017-08-22 17:44:48,2017-08-29 18:55:50,13.105254629629629,98.0,Late,-22.949521500432684,-43.18724280391251,rio de janeiro,RJ,22260
a4e8ed3c6d3f35cd4d7999f34d2a2a9a,2017-05-13 14:36:03,2017-05-18 14:50:07,2017-05-28 09:57:31,14.806574074074074,34.99,Late,-29.958341417969976,-51.16527232748586,canoas,RS,92130
e1a9073ab42d6cbd16dcf2aa7d695f6d,2018-04-06 10:33:36,2018-04-12 10:49:46,2018-04-25 13:06:56,19.10648148148148,34.9,Late,-22.88090999813616,-43.41327420037277,rio de janeiro,RJ,21750
00c763284c0056eed753352f5559ff0a,2018-05-31 23:51:24,2018-06-11 00:10:44,2018-06-13 15:34:39,12.655034722222222,79.9,Late,-23.69862157013155,-46.54372216271562,sao bernardo do campo,SP,9760
2c898efc01eadc9d297ade3fd9fe540d,2018-01-06 21:22:25,2018-01-11 21:31:27,2018-01-17 21:07:58,10.989965277777777,22.9,Late,-20.14068469699654,-44.89247279148511,divinopolis,MG,35500
20b61ae06ac41b6e23c10c90ad0331a5,2017-11-26 10:21:51,2017-12-12 10:36:02,2017-12-14 03:39:30,17.720590277777777,49.89,Late,-23.003091281724174,-43.386528483899845,rio de janeiro,RJ,22793
f8ff2ca85b5c244343205cf7d85904bc,2017-04-01 18:24:37,2017-04-17 18:35:24,2017-04-19 11:23:41,17.707685185185184,74.9,Late,-23.422062273937943,-51.8883709061215,maringa,PR,87045
8b5f626276db26826fa773137035309c,2018-01-11 19:26:03,2018-01-17 19:34:30,2018-01-18 14:04:12,6.776493055555555,166.99,Late,-19.626650223225017,-44.02973051732734,pedro leopoldo,MG,33600
10ac3b593f06e0dd6b38a53821c1d497,2017-01-29 11:18:22,2017-02-02 11:18:22,,,168.0,Not Delivered Yet,-9.414440010087521,-40.50162621477746,juazeiro,BA,48903
25ed8cc8c43f4ebcabd60fc31840c401,2017-08-08 17:40:13,2017-08-21 03:15:30,2017-08-12 11:42:20,3.7514699074074076,56.99,In Time,-23.217070222315186,-45.90580260115995,sao jose dos campos,SP,12246
81aaca55da8047141cf58b07e5f2e26a,2018-06-17 07:10:13,2018-06-21 07:30:50,2018-06-26 13:03:43,9.245486111111111,89.0,Late,-22.53742478096879,-43.19243845878758,petropolis,RJ,25645
96c7412c14bcdf2793e352dee66be6a7,2017-09-12 16:08:02,2017-09-21 16:27:27,2017-09-18 19:37:52,6.145717592592592,229.0,In Time,-22.906712658463846,-43.091787905276796,niteroi,RJ,24230
55369224caa140402df3d45387f08c41,2018-03-05 10:30:39,2018-03-12 10:29:55,2018-03-15 22:47:39,10.511805555555556,119.8,Late,-25.44699987806978,-49.28774067940552,curitiba,PR,80240
eeb03bd554e175a6c6ae5cdc2e86d841,2017-10-08 17:55:05,2017-10-13 18:30:36,2017-10-13 17:22:58,4.977696759259259,29.99,In Time,-32.05492233824136,-52.13352677620293,rio grande,RS,96212
17a0d6c98b2dc14bfc378f1ebe19b11b,2018-03-29 19:42:55,2018-04-04 19:55:19,2018-04-04 02:05:23,5.2656018518518515,29.9,In Time,-23.621214530671118,-46.53667338536561,santo andre,SP,9220
bd6a1bf9e611f39801013f5c1f0f14cc,2018-03-23 17:03:49,2018-04-06 17:15:26,2018-04-12 14:15:19,19.882986111111112,69.99,Late,-22.86096295116067,-46.32808233041757,extrema,MG,37640
4b1267d8500339f462cf46b50a8a9636,2017-11-26 09:24:19,2017-11-30 09:35:25,2017-12-05 21:51:42,9.519016203703703,59.9,Late,-23.962131471002323,-46.325754335276116,santos,SP,11050
beea8116a9908f0390812fd77d9b1f2e,2017-05-21 08:03:32,2017-05-29 03:55:17,2017-05-29 14:17:47,8.259895833333333,42.99,Late,-15.80533316213004,-48.06598532381422,brasilia,DF,72120
51b30435208f155396e7732009443833,2017-05-14 06:20:25,2017-05-22 08:55:12,,,669.0,Not Delivered Yet,-22.966447369957947,-43.1841884733396,rio de janeiro,RJ,22040
adc0c438fc69e3d7797ed563551573c3,2018-06-18 19:45:24,2018-06-20 19:57:06,2018-06-22 18:44:53,3.957974537037037,140.0,Late,-23.023194544070225,-43.51404313627134,rio de janeiro,RJ,22790
5a28f02f8dfebb2357b3ecdb2ae55430,2018-05-11 12:15:53,2018-05-17 12:30:58,2018-05-22 18:53:25,11.276064814814815,39.99,Late,-22.975726652815577,-43.333695384174824,rio de janeiro,RJ,22723
578c61a097978687b2c5109f39efe918,2017-03-10 14:56:00,2017-03-21 14:56:00,2017-03-17 14:48:16,6.99462962962963,64.99,In Time,-18.723517751730594,-47.497013625009075,monte carmelo,MG,38500
4b9fc2bcaef1126cf5e22ba8afecfe1b,2017-06-12 19:25:56,2017-06-16 19:35:22,2017-06-16 14:36:20,3.798888888888889,57.99,In Time,-22.923215497085806,-43.2258812812915,rio de janeiro,RJ,20550
5859bf190ee8241fc9369a880297ee0e,2018-03-22 17:19:48,2018-03-29 02:07:52,2018-04-04 23:48:30,13.269930555555556,84.0,Late,-19.946063723844397,-43.92986875659298,belo horizonte,MG,30310
a71697ed5952ec8c72a86901131efc9b,2017-04-19 20:44:21,2017-04-27 20:50:19,2017-05-03 15:19:57,13.774722222222222,69.9,Late,-16.75354276747146,-43.868681381651065,montes claros,MG,39403
b7d6888a6d024b1e676d3156e53defb8,2017-01-30 13:24:35,2017-02-03 13:24:35,2017-02-08 09:45:44,8.848020833333333,35.0,Late,-23.422045917668946,-51.94542952598374,maringa,PR,87013
2c43da70769acf988d27b050b189c7fe,2017-12-27 18:57:38,2018-01-04 14:07:35,2018-01-19 19:17:48,23.01400462962963,122.9,Late,-22.46431824209338,-42.65475309384405,cachoeiras de macacu,RJ,28680
2438db344bc7b4762af1a87e1fd54cd0,2017-05-19 23:16:51,2017-05-24 23:30:16,2017-06-02 15:35:58,13.67994212962963,59.9,Late,-23.025711375599716,-43.4839969730979,rio de janeiro,RJ,22795
fa7d72fd5ce0a155a608f0981ef23c91,2018-08-15 18:52:16,2018-08-28 19:05:21,2018-08-20 19:26:31,5.0237847222222225,22.32,In Time,-19.97962682041671,-43.966496090339895,belo horizonte,MG,30575
fbe1661023a94e53d4ec2c938e38c8f2,2017-05-01 09:35:45,2017-05-05 09:50:11,2017-05-05 17:42:02,4.337696759259259,13.98,Late,-21.712154711062453,-43.368054155288796,juiz de fora,MG,36047
88fee4747e42f5d4b4bdbf2a730d6e2a,2017-12-29 20:20:52,2018-01-05 20:28:19,2018-01-04 20:38:34,6.012291666666667,169.9,In Time,-22.736593690548435,-47.400113603548135,santa barbara d'oeste,SP,13453
f5695fb0596df12b626efc77bd076d57,2017-10-20 21:59:42,2017-10-25 22:14:11,2017-11-17 21:18:46,27.971574074074073,84.9,Late,-1.4423685320274306,-48.49119715762608,belem,PA,66055
98e94d121fb6444de93e426ceeb1e0e0,2018-01-23 12:13:10,2018-01-29 18:16:34,2018-02-06 13:58:48,14.07335648148148,219.9,Late,-22.39047760813258,-44.96636955517389,passa quatro,MG,37460
a5bb508b158c65e99f596d0e8a2bc08d,2018-04-04 11:07:21,2018-04-10 11:29:23,2018-04-11 21:53:24,7.448645833333333,120.0,Late,-19.84014681250611,-44.60213798478469,para de minas,MG,35660
5c4ddbfa718a93f4b6b964b9e19472df,2017-04-30 17:50:27,2017-05-15 18:03:06,2017-05-16 08:29:43,15.610601851851852,144.99,Late,-15.821281352434141,-47.98668595707557,brasilia,DF,71015
4055525efb230dfd940236b7888f2012,2018-07-19 11:18:36,2018-07-25 11:30:24,2018-07-23 23:41:51,4.516145833333334,19.99,In Time,-23.56691312237492,-46.81048705669247,osasco,SP,6150
7ea79c5a0a141e742e9369fba0899043,2017-11-30 17:51:15,2017-12-08 18:50:50,2017-12-27 21:14:20,27.141030092592594,119.99,Late,-22.900675368313166,-43.18162200568416,rio de janeiro,RJ,20080
b25e83776a0bf6440214b6258416e4e1,2018-07-26 17:26:17,2018-08-01 09:10:15,2018-08-06 20:44:41,11.137777777777778,15.99,Late,-19.88470255812431,-44.98475814119802,nova serrana,MG,35519
8df1ba8711787d5cfe3b90f535d04dc4,2017-10-30 21:18:49,2017-11-07 16:55:43,2017-11-13 20:18:58,13.9584375,1437.0,Late,-4.230614284065865,-44.78035980173356,bacabal,MA,65700
aa16a9dc58c4e7ae9a0e55ddb47fff80,2018-01-03 23:02:08,2018-01-09 23:31:17,2018-01-15 17:52:43,11.785127314814815,69.9,Late,-22.896427390501515,-43.35241503191186,rio de janeiro,RJ,21321
1580e54bbbd269a8188302f3179c0dc7,2018-01-07 16:01:22,2018-01-15 07:16:35,2018-01-22 15:38:58,14.984444444444444,119.9,Late,-20.072603091186288,-44.57659380053963,itauna,MG,35680
8cb9dee4f1dcfd13f7dbe690e29570cc,2018-07-19 18:05:03,2018-07-26 03:10:22,2018-07-31 01:18:29,11.300995370370371,139.0,Late,-20.376114247502052,-40.31506891395086,vila velha,ES,29102
05302619b1bff6733f64a97851af68cd,2018-01-21 14:04:33,2018-01-29 03:36:53,2018-02-07 21:27:04,17.30730324074074,29.99,Late,-22.978856766028045,-43.18992129378497,rio de janeiro,RJ,22060
b5199c66306c07a949f9a9069f7fda57,2017-08-31 20:54:05,2017-09-07 21:05:40,2017-09-12 21:41:57,12.033240740740741,325.0,Late,-20.07211848343533,-44.579875986064565,itauna,MG,35680
a69be533137eff298fcc82d52bb95a2c,2017-07-16 17:00:46,2017-07-21 17:10:08,2017-07-27 21:58:35,11.206817129629629,55.0,Late,-20.263741523169287,-40.27119312764745,vitoria,ES,29090
a129b99db0bdcd92c62d71279de0670c,2017-07-20 15:25:14,2017-07-27 02:25:32,2017-08-05 13:49:53,15.933784722222223,195.9,Late,-22.895914692701307,-43.124175467988884,niteroi,RJ,24020
4c05a3711a90dee7f6336af0f3385142,2017-05-12 09:24:26,2017-05-18 02:50:20,2017-05-26 16:39:50,14.30236111111111,16.99,Late,-27.883733293185454,-54.48515108554767,santa rosa,RS,98900
c5c563437568ad88f8243cda53218d0e,2018-06-08 11:09:25,2018-06-18 11:31:13,2018-06-14 16:11:33,6.2098148148148145,55.0,In Time,-21.215838520581478,-43.781595281058316,barbacena,MG,36202
7af99279a8af75b4b281a28927b84b81,2017-02-24 19:20:34,2017-03-07 19:30:13,2017-03-07 19:11:54,10.993981481481482,28.99,In Time,-22.9345941154711,-43.352272126695155,rio de janeiro,RJ,22743
a5f93aa1c000c4e41196ec88fb378954,2017-12-30 17:39:33,2018-01-05 17:49:22,2018-01-10 22:20:54,11.195381944444444,14.9,Late,-20.27840761912381,-40.29851938433891,vitoria,ES,29065
933a4d6f0739efd8aa68decea5b411c6,2017-03-01 14:55:51,2017-03-09 02:22:34,2017-03-10 11:36:39,8.861666666666666,64.9,Late,-20.19188174104108,-40.26251128051207,serra,ES,29167
3cad2aa3b180252c0393e89cd3a7d449,2018-02-04 17:12:46,2018-02-09 17:31:37,2018-02-14 19:29:01,10.094618055555555,75.0,Late,-18.76081826108168,-44.90427221696508,felixlandia,MG,39237
147358ddf9e49b36b1e82b648678d1f8,2018-06-25 21:29:34,2018-07-01 21:53:17,2018-06-28 15:10:57,2.7370717592592593,82.0,Quick,-22.915885976686482,-43.24055112906108,rio de janeiro,RJ,20541
8800d14eb6eb6031624538ca8750b921,2017-07-04 18:21:02,2017-07-11 17:16:25,2017-08-22 19:03:14,49.02930555555555,109.9,Late,-22.899419999999992,-43.09270199999999,niteroi,RJ,24220
8d5af908ce8ffa721a9f665abb660200,2017-05-27 13:30:08,2017-06-07 13:42:19,2017-06-02 16:03:22,6.106412037037037,48.9,In Time,-20.387034820969024,-43.488405899318614,ouro preto,MG,35400
6b1d0be1d67ed935bcaab8aa908f2b3e,2017-06-22 15:16:23,2017-07-12 15:30:21,2017-07-06 13:59:23,13.946527777777778,13.9,In Time,-23.35936520135,-47.85099306521707,tatui,SP,18275
b885d5e857bb433aa2d6c530a08e5e44,2018-03-22 17:50:39,2018-04-02 18:00:36,2018-04-11 18:03:24,20.008854166666666,349.9,Late,-23.502713308178027,-45.124052328652105,ubatuba,SP,11680
a695e8fc1b0a6e9c814da33ed8cd9703,2018-07-14 18:58:11,2018-07-19 04:31:32,2018-07-30 18:22:07,15.974953703703704,150.0,Late,-23.435283218222814,-46.7836201309337,sao paulo,SP,4851
7b1250fe66e9056df3b6eeb2659dfb22,2018-02-06 17:39:21,2018-02-13 17:52:13,2018-02-19 17:16:38,12.984224537037036,59.9,Late,-23.21971088980902,-45.90423617124475,sao jose dos campos,SP,12246
d3842b5388a1a39f220c1fecd16807a6,2018-03-30 23:27:37,2018-04-12 23:47:24,2018-04-06 17:49:32,6.765219907407407,169.99,In Time,-23.95970817707313,-46.33933232183036,santos,SP,11075
5ccf62709f079c27307f316fdc2e794a,2017-12-08 16:15:26,2017-12-14 16:32:11,2017-12-19 12:22:27,10.838206018518518,229.9,Late,-19.80611468581489,-43.17902560726862,joao monlevade,MG,35930
15d972c5dd4501e8d219acbe1bea1519,2017-07-16 20:59:06,2017-07-24 06:05:36,2017-08-10 17:52:24,24.87034722222222,99.99,Late,-30.00551691312255,-51.13880130336425,porto alegre,RS,91110
9c2ba52157b36c56751de3ad0e6ec01c,2018-04-19 10:35:22,2018-04-25 11:15:18,2018-04-23 19:58:33,4.391099537037037,95.0,In Time,-19.93260727782904,-43.97410629739164,belo horizonte,MG,30421
c3d40727f60424d81739c4647fab72aa,2018-04-19 22:19:19,2018-04-25 22:30:12,2018-04-30 23:52:36,11.064780092592592,110.0,Late,-19.93753626089215,-44.11972624493623,betim,MG,32676
38c2ff711e43f0a1fbd53318ec252e21,2018-05-07 11:26:23,2018-05-11 17:56:47,2018-05-14 18:44:43,7.304398148148148,39.0,Late,-19.625572277848477,-43.224839150697264,itabira,MG,35900
8753234920fc250d95ea7dc9d517cef9,2018-03-29 10:51:53,2018-04-05 11:09:00,2018-04-09 17:36:28,11.280960648148149,84.89,Late,-23.514318754919547,-46.477937158202984,sao paulo,SP,3896
9b0ea51a8dddc4af77a94448e58d332f,2018-02-17 14:57:23,2018-02-26 14:10:23,2018-02-26 20:29:01,9.230300925925926,79.99,Late,-23.5768827732414,-46.45665690966009,sao paulo,SP,8265
bf93a9c9cc2879163c62f43f8fb70cec,2017-05-30 17:11:37,2017-06-07 17:25:18,2017-06-05 18:42:28,6.0630902777777775,129.9,In Time,-19.928466426261384,-43.942579274715634,belo horizonte,MG,30170
5d17efea0be94cdb2964031a1eab75dc,2017-03-13 10:57:14,2017-03-23 10:57:14,2017-04-05 12:03:38,23.04611111111111,129.9,Late,-22.970764099919187,-43.413811969588686,rio de janeiro,RJ,22783
f8a7ddc8ce9090a2647d48daecae3a24,2017-06-02 18:54:54,2017-06-16 12:35:06,2017-06-19 18:18:48,16.974930555555556,219.99,Late,-24.120681789486923,-46.708902962931525,mongagua,SP,11730
00584d79015452d19fd3d044ba3abdc0,2017-07-23 19:11:15,2017-07-27 19:27:31,2017-07-26 18:58:35,2.991203703703704,109.9,Quick,-23.62937952289093,-46.759941948343815,sao paulo,SP,5767
f9b70a12018e8fc54ff01781ea794a6b,2018-01-14 17:48:42,2018-01-18 18:08:58,2018-01-25 20:09:13,11.097581018518518,149.0,Late,-25.452827568054005,-49.288354621988525,curitiba,PR,80240
dc554659515cf551660a23d201582805,2017-11-23 22:14:44,2017-11-29 22:28:25,2017-12-13 19:22:13,19.88019675925926,120.0,Late,-23.022001059380322,-43.46290092728948,rio de janeiro,RJ,22795
3ff122d5ce35754dba91bc1c99ad6a65,2018-08-05 20:01:03,2018-08-16 20:10:18,2018-08-20 17:31:14,14.895960648148149,39.95,Late,-22.90246669276925,-43.103782871342936,niteroi,RJ,24220
6c680c441a53c52610b5abd41e2b8ce6,2017-08-30 15:25:39,2017-09-05 15:35:15,2017-09-01 19:26:36,2.1673263888888887,98.0,Quick,-23.45941005828381,-46.595428422846076,sao paulo,SP,2315
25e2eb92a4861f100d82edfb2cbbb47f,2018-03-19 10:02:36,2018-03-27 02:48:30,2018-04-24 23:33:03,36.5628125,89.66,Late,-21.24051470774424,-44.99337284055623,lavras,MG,37200
2771a9b2fefbbaee6eb0924c73b0b32e,2017-08-21 13:51:03,2017-08-25 14:05:30,2017-09-01 17:22:35,11.146898148148148,89.99,Late,-20.261009536211027,-40.26071336955391,vitoria,ES,29090
9a3a5d9f44aaf3084676e57886d5c660,2017-06-02 15:58:47,2017-06-12 16:10:17,2017-06-09 15:12:31,6.96787037037037,136.9,In Time,-22.767726354751158,-47.15195368699864,paulinia,SP,13140
581df21026c7ba80ffbaa5c3c21a6788,2017-07-31 00:26:33,2017-08-04 00:43:01,2017-08-07 16:23:18,7.6644097222222225,29.0,Late,-30.033505561746257,-51.22883146280802,porto alegre,RS,90010
4ffc1b827a6dd12870115ee85e68945c,2017-12-05 01:57:56,2017-12-11 10:05:07,2017-12-15 23:16:37,10.887974537037037,43.8,Late,-29.848623942410214,-51.15823670398878,esteio,RS,93280
05f54a9f4abf370b7c655d914159ab98,2018-04-01 22:38:07,2018-04-05 23:27:28,2018-04-10 11:52:54,8.55193287037037,53.9,Late,-23.52056610574757,-47.128747572998996,sao roque,SP,18134
ee26442f130a74cb3b1d184ece5acd12,2017-07-28 19:39:19,2017-08-10 04:45:20,2017-08-17 21:48:51,20.089953703703703,29.99,Late,-23.968798271712203,-46.314033490016676,santos,SP,11040
572c8f79a589e5ab2a0d8eec910deec1,2018-06-06 09:43:39,2018-06-19 09:55:22,2018-06-12 19:58:47,6.427175925925926,25.0,In Time,-20.201145380518195,-40.2729721882972,serra,ES,29162
d3b1c54aad50f3222af70ad725e9c481,2017-08-01 14:11:57,2017-08-07 14:30:12,2017-08-08 19:04:52,7.203414351851852,37.99,Late,-22.78942039669863,-43.319893445756435,duque de caxias,RJ,25015
25d98499d4fbac84c6e15d83148cf23a,2017-08-01 10:30:39,2017-08-07 10:50:08,2017-08-07 17:19:48,6.284131944444445,299.9,Late,-23.547913292804015,-46.59421269415424,sao paulo,SP,3166
1b01e824ff3005e8108c5112f41c219c,2017-02-08 17:01:04,2017-02-28 16:01:04,2017-03-01 13:08:21,20.838391203703704,42.0,Late,-17.845961876965173,-40.34777671699071,nanuque,MG,39860
be3a6032ad2e0e262351e84d3db872da,2018-07-11 00:47:24,2018-07-19 02:43:57,2018-07-25 00:18:26,13.97988425925926,22.9,Late,-20.33118598377983,-40.28090916188613,vila velha,ES,29101
2d288e83d37a0c4589564d5b679693de,2017-10-23 19:55:54,2017-10-27 20:14:43,2017-11-01 19:33:48,8.984652777777777,149.99,Late,-23.540937956431378,-47.1351450328928,sao roque,SP,18136
564e414f20390e6417f5e6c6ad3f095e,2017-12-20 19:29:21,2017-12-28 02:11:19,2018-01-12 12:28:03,22.707430555555554,599.0,Late,-29.7173446637263,-51.13748815543925,novo hamburgo,RS,93330
5fa285b6edf81b62a0b66dae40d38d0e,2017-11-24 01:45:00,2017-12-07 04:30:44,2017-12-07 15:15:56,13.563148148148148,67.9,Late,-5.063396157753097,-42.780628372133584,teresina,PI,64049
627c1c31327bda6f11b5e7c613f1d366,2017-07-10 19:32:51,2017-07-14 19:45:15,2017-07-17 17:13:45,6.903402777777778,21.99,Late,-22.955932959201334,-43.17446576894224,rio de janeiro,RJ,22290
bcfd112593a122ae1272e80681e2ac72,2017-03-07 12:36:25,2017-03-13 13:03:57,,,69.9,Not Delivered Yet,-22.849788886490796,-43.299144451007024,rio de janeiro,RJ,21221
f3f00047607e23b2b33f81618622a7a4,2017-06-16 01:13:18,2017-06-22 03:21:04,2017-07-03 14:27:59,17.551863425925927,34.9,Late,-30.150527489324187,-51.22294154954122,porto alegre,RS,91770
e75011be2ec3dec23d2ed6757d35c792,2017-01-19 14:38:27,2017-01-23 14:38:27,2017-01-23 12:38:48,3.916909722222222,144.5,In Time,-21.80523674892807,-46.5467677238946,pocos de caldas,MG,37704
9d241238f3827aced623154ace551dd9,2018-03-08 19:46:59,2018-03-16 03:48:52,2018-03-15 16:37:50,6.868645833333333,69.9,In Time,-23.482738713091177,-46.73511907286441,sao paulo,SP,5138
a13dad9bac2076b14880117ef9c12002,2018-01-27 19:42:48,2018-02-01 19:58:25,2018-02-06 23:58:42,10.177708333333333,97.07,Late,-23.676323992399627,-46.668804140327126,sao paulo,SP,4438
69a67f0ee0c09223e7bbd96233f1d322,2018-06-17 16:09:40,2018-06-21 16:31:38,2018-06-22 17:51:19,5.070590277777778,109.0,Late,-23.672488599774958,-46.609281130042035,diadema,SP,9940
838134390df33aab81a8bfaf7260b61b,2018-07-30 11:29:59,2018-08-02 12:04:44,2018-08-03 19:18:53,4.325625,198.67,Late,-23.562586037191988,-46.65530040452421,sao paulo,SP,1311
d80faf302bbccea1f0b613d440de4d33,2018-06-16 19:42:05,2018-06-20 19:58:37,2018-06-22 20:24:49,6.029675925925926,23.99,Late,-22.55683363835193,-47.410087137947905,limeira,SP,13484
d381b82dfce3b3c57938ed35c09ce096,2017-11-30 11:04:45,2017-12-06 11:14:25,2017-12-14 18:18:46,14.301400462962963,107.0,Late,-22.907340864881377,-43.10383163437968,niteroi,RJ,24230
cdaededb679c58a0e7de44a196b55750,2017-03-10 09:39:00,2017-03-21 09:39:00,2017-03-20 10:57:53,10.054780092592592,19.99,In Time,-22.426032698761684,-43.42301803274158,paty do alferes,RJ,26950
cba101e2b0c4dbb1dc4dc0f97c424f01,2018-05-19 17:01:25,2018-05-23 17:15:20,2018-05-22 14:33:21,2.897175925925926,107.9,Quick,-23.50305246266379,-46.609749545097834,sao paulo,SP,2071
d069386dc9272623bf6734acaa0b5c74,2018-06-15 19:08:15,2018-06-19 19:31:46,2018-06-30 17:31:13,14.93261574074074,138.0,Late,-22.93396233527612,-43.363598930059425,rio de janeiro,RJ,22770
ea5cec9447a41351dabd449056d1992a,2018-04-19 09:53:03,2018-04-26 07:30:41,2018-06-06 19:28:47,48.39981481481482,110.0,Late,-9.655848503462455,-35.71972183236193,maceio,AL,57035
dbd67f13fdc695836f0eb7b7c83dbd46,2018-05-02 14:49:23,2018-05-08 15:22:00,2018-05-08 00:12:46,5.391238425925926,49.99,In Time,-23.24496988500576,-45.89282481999232,sao jose dos campos,SP,12228
7a93a948d1378fc5fcfd0a09f00136c7,2018-02-22 23:42:08,2018-03-01 02:55:29,2018-03-13 15:58:49,18.678252314814817,72.99,Late,-28.70865983303245,-51.931326479239154,serafina correa,RS,99250
9c9f7b0c21d98c81b75246bb758c386e,2017-10-19 23:00:57,2017-10-26 00:06:03,2017-10-27 18:43:42,7.821354166666667,269.99,Late,-23.200948364056497,-49.385424685287,piraju,SP,18800
efcd8852328a37fca811747c09c6fb69,2017-05-21 08:01:40,2017-05-25 09:31:35,2017-05-24 15:05:49,3.2945486111111113,20.0,In Time,-23.811557627616352,-46.81538934018885,embu-guacu,SP,6900
d112a6ef5cdb3b9a169fbf4bbd7dcabc,2017-05-11 11:44:50,2017-05-18 02:55:49,2017-05-15 17:16:57,4.230636574074074,17.97,In Time,-22.93083447322402,-43.35649500830989,rio de janeiro,RJ,22770
9d0c12dbf76bdf0cce437cc6128e0d55,2017-12-12 15:40:35,2017-12-18 15:58:39,2017-12-26 16:52:14,14.049756944444445,69.99,Late,-22.892981403764235,-42.04532289958175,cabo frio,RJ,28909
b817f6c3399d06c7629a445527b463dd,2017-11-23 23:10:38,2017-11-29 23:19:30,,,19.99,Not Delivered Yet,-22.52632964049497,-41.96494748536344,rio das ostras,RJ,28893
35572bdee2c8dfe1085aa9f6fd8ac60d,2018-05-15 22:52:30,2018-05-21 23:14:07,2018-05-22 17:22:32,6.770856481481482,130.0,Late,-19.951199046078784,-43.94836874978366,belo horizonte,MG,30380
be47ea1ee3433ff4f5006ab2c5f9e0a9,2017-12-13 18:57:12,2017-12-19 19:10:19,2017-12-16 15:05:56,2.839398148148148,68.99,Quick,-24.011288218359883,-46.41873374429398,praia grande,SP,11701
5adcb18c1456b44c8c96e0540ea9b9df,2017-12-03 23:39:27,2017-12-07 23:54:08,2017-12-13 23:29:03,9.992777777777778,79.9,Late,-21.244142093695867,-44.98457799525495,lavras,MG,37200
cef32f42c7dcdc8bcf919ba74f04da78,2017-09-12 17:20:21,2017-09-18 18:04:36,2017-09-18 20:32:23,6.133356481481481,39.0,Late,-20.945690543138927,-48.46438236485915,bebedouro,SP,14711
905abf7e67aedee76e5974a22bcef8cd,2018-08-04 10:41:13,2018-08-07 10:50:17,2018-08-09 12:47:26,5.087650462962963,249.0,Late,-22.92431113015762,-43.25209888856826,rio de janeiro,RJ,20540
55d61651bd48809af0402aa14f64e523,2017-11-30 18:59:34,2017-12-06 19:32:24,2017-12-11 19:17:09,11.012210648148148,79.9,Late,-22.146272772962753,-51.422375041500715,presidente prudente,SP,19053
6afa03fba2ab6ae8174e9c9477c85506,2017-12-04 13:39:45,2017-12-08 16:47:26,2017-12-11 17:23:34,7.155428240740741,39.0,Late,-23.623072350871656,-46.99780028165612,vargem grande paulista,SP,6730
ac8a707fb4b1197afa70e75fa66f187d,2018-08-03 09:04:28,2018-08-07 09:24:06,2018-08-06 19:31:49,3.4356597222222223,25.0,In Time,-23.96828561427576,-46.35959297630489,sao vicente,SP,11320
70ed892da9da5db41406428e9d9ced49,2017-05-01 23:07:26,2017-05-08 23:22:51,2017-05-11 16:19:54,9.71699074074074,15.75,Late,-18.904316951151245,-48.274907463644745,uberlandia,MG,38400
4ccb18585c6005147fbfe3c78a9caf2b,2018-02-15 14:18:07,2018-02-22 02:47:42,2018-02-27 13:25:00,11.963113425925926,108.0,Late,-22.89343349142813,-43.1232356387434,niteroi,RJ,24020
6d5b02afa38b0682ac9c0ca1cc98b463,2018-08-18 20:16:45,2018-08-21 20:30:11,2018-08-23 23:16:49,5.125046296296296,23.9,Late,-23.497722188181626,-46.72231478711988,sao paulo,SP,5143
985f418428a2040e904e93491b78c1f1,2018-02-20 13:52:36,2018-02-26 14:09:31,2018-03-07 21:19:44,15.310509259259259,55.0,Late,-19.974066841797,-43.96651536871719,belo horizonte,MG,30493
564cf6104644e5122d47adf8bf6276c5,2017-12-16 21:21:54,2017-12-21 21:31:34,2017-12-29 21:48:35,13.018530092592593,799.0,Late,-16.4408132386988,-39.07020896765969,porto seguro,BA,45810
0ed70666bb64b5c2ba83b2a6dc37f032,2018-03-28 22:34:38,2018-04-03 22:50:14,2018-04-05 14:58:34,7.683287037037037,117.7,Late,-22.85001400050288,-43.275407174514314,rio de janeiro,RJ,21073
9dc9f2ae74e006656a3312dd31e76b5f,2018-02-18 00:10:50,2018-02-22 00:26:32,2018-02-27 17:28:30,9.720601851851852,79.99,Late,-19.94112740689013,-43.930031290870765,belo horizonte,MG,30310
27d6233886151ecc1ed368ce120ec5cf,2018-05-15 22:05:44,2018-05-21 22:31:14,2018-05-22 22:12:08,7.004444444444444,215.9,Late,-23.958033987794973,-46.328623507213344,santos,SP,11065
d3b0d8353eadc4ba7ff0b60f87949a02,2018-08-08 18:25:49,2018-08-10 18:35:15,2018-08-10 22:09:22,2.1552430555555557,29.0,Late,-23.710173906168983,-46.53892208479997,sao bernardo do campo,SP,9770
acf06644cacca76ec575d6e2b7ca9c1d,2017-04-29 12:02:34,2017-05-05 12:04:03,2017-05-08 14:58:16,9.122013888888889,249.99,Late,-23.005939499999997,-43.48181249999999,rio de janeiro,RJ,22790
2c81e6aa6ff35dc1927f3002b02c7066,2017-06-27 19:39:10,2017-07-10 19:50:17,2017-07-04 12:14:20,6.691087962962963,190.0,In Time,-23.709247368544318,-46.54323998638133,sao bernardo do campo,SP,9770
ce32a1ef7b8affd937675b5aa005d877,2017-11-24 14:06:15,2017-12-01 16:14:42,2017-12-13 16:22:59,19.094953703703705,105.0,Late,-22.896155451843743,-43.35103158243404,rio de janeiro,RJ,21321
42c2b836618db2b955ea569011464e97,2018-05-23 17:27:50,2018-06-14 17:37:05,2018-06-02 12:06:21,9.776747685185185,38.9,In Time,-19.813874857060433,-43.99050785429048,belo horizonte,MG,31573
8dcdc3f032fcbc54ae56d5a0f0c2f18c,2017-03-24 15:46:56,2017-03-30 15:55:29,2017-03-30 12:56:56,5.881944444444445,31.9,In Time,-18.891805411045073,-48.26420602914189,uberlandia,MG,38400
08915f902759876fcac1ccf9bbc966cf,2017-08-18 20:41:08,2017-08-24 12:30:21,2017-09-01 21:24:49,14.030335648148148,26.9,Late,-1.4360079053895776,-48.45758878117591,belem,PA,66095
1092bd1c4047de3d8b0445f8539f4dc6,2018-01-28 13:38:18,2018-02-01 14:00:14,2018-02-08 17:13:05,11.149155092592592,69.9,Late,-29.988241030019545,-50.13895549894002,tramandai,RS,95590
9a197fc58b547707fe88aab7206627b5,2018-05-14 16:23:04,2018-05-23 16:37:24,2018-05-21 15:22:34,6.957986111111111,25.9,In Time,-23.792692354534402,-45.35651005995136,ilhabela,SP,11630
d5b1560bb46f4b57510a45569fa41b4c,2018-05-27 08:07:44,2018-06-04 08:30:15,2018-06-08 16:28:47,12.34795138888889,43.9,Late,-22.88518876715323,-43.34897452138029,rio de janeiro,RJ,21341
8eabb0219281482f84013cbc8a4e5364,2018-07-16 20:07:08,2018-07-24 03:05:13,2018-08-06 22:44:50,21.109513888888888,49.9,Late,-22.8810797633414,-47.177787007930235,hortolandia,SP,13185
a1031a3fcd990edb954ba03274a2c39d,2017-02-07 17:03:30,2017-02-13 17:03:30,2017-02-13 11:21:48,5.762708333333333,550.99,In Time,-23.584933191268707,-46.79054558840665,sao paulo,SP,5583
5ffef190f82ef1609e36ce56abdde5e9,2017-09-28 15:36:23,2017-10-18 03:34:20,2017-10-17 17:04:48,19.06140046296296,31.9,In Time,-14.611843850484235,-41.138978888854524,anage,BA,45180
df8e5e994bcc820fcf403f9a875201e6,2018-08-01 13:30:12,2018-08-07 13:44:25,2018-08-06 22:28:21,5.3737152777777775,75.0,In Time,-21.491496525641907,-51.54326412928626,dracena,SP,17900
03952349aca310eeba691019501388de,2017-08-29 20:46:02,2017-09-18 02:35:53,2017-09-26 21:40:48,28.038032407407407,84.9,Late,-25.42346463777501,-49.19330893865778,pinhais,PR,83324
504b7cb87442ebd376fbcab13b114a3f,2017-11-04 18:59:16,2017-11-09 19:10:32,2017-11-10 20:07:55,6.047673611111111,146.99,Late,-19.77777718172901,-43.932287288763554,santa luzia,MG,33145
f0c11cab63a210c8c102b31a8edd69db,2017-08-12 22:29:58,2017-08-16 22:44:12,2017-08-18 19:53:36,5.891412037037037,220.0,Late,-17.23848875637491,-46.88064015554787,paracatu,MG,38600
20dbf24263d2b7197c8d23bee91cb263,2017-12-06 15:48:19,2017-12-12 16:12:30,2017-12-26 18:38:58,20.118506944444444,199.0,Late,-22.816983416036734,-43.29161438980903,rio de janeiro,RJ,21010
fc66f65bd879bd459e1cb14324335727,2018-01-17 16:49:16,2018-01-24 02:13:13,2018-01-24 14:28:15,6.902071759259259,51.49,Late,-20.743551135726193,-48.89687911296093,olimpia,SP,15400
7a53fed7f9006ef9325efa365e6a1992,2018-06-10 14:03:38,2018-06-15 14:17:34,2018-08-09 19:40:47,60.23413194444444,299.9,Late,-14.631249999999966,-57.48583999999994,tangara da serra,MT,78300
64aea51c84f7779855364184e8ce95f1,2018-03-30 15:47:09,2018-04-06 16:27:11,2018-05-08 18:27:51,39.11159722222222,65.9,Late,-30.060489456575603,-51.166314701915866,porto alegre,RS,91530
e30b9cda599826e24ad3f5eddf966583,2017-07-24 23:01:15,2017-07-30 23:10:19,2017-08-11 22:16:05,17.96863425925926,19.99,Late,-3.7305385670263744,-38.50769922093021,fortaleza,CE,60115
e79e9586e0286172870edc4c3f428966,2018-04-05 19:38:13,2018-04-11 19:50:18,2018-04-18 22:51:30,13.134224537037037,169.99,Late,-22.60419320573518,-43.70260521795636,paracambi,RJ,26600
45ece9d703e8c043b9e825c88a00c561,2017-03-07 13:38:52,2017-03-15 02:35:33,2017-03-17 09:11:59,9.814664351851851,15.18,Late,-22.983011015811705,-43.23889183334288,rio de janeiro,RJ,22451
4516c79ac42f6a567bf4d1209eba2b33,2018-04-29 18:43:21,2018-05-04 19:10:12,2018-05-05 13:47:36,5.7946180555555555,112.9,Late,-20.541159730030564,-47.38755356621649,franca,SP,14403
a56f9a0588c3c7aaaa93f193bd7c7cd3,2018-03-15 12:40:16,2018-03-23 03:30:59,2018-03-26 15:04:21,11.100057870370371,35.0,Late,-19.928980257833732,-43.924535743407006,belo horizonte,MG,30130
2c6c5c881336bcec2d8c89cb05184a81,2018-03-26 18:45:21,2018-04-02 18:49:00,2018-04-03 22:22:43,8.150949074074074,119.9,Late,-22.911213333862484,-43.10497087996993,niteroi,RJ,24230
23d16dddab46fd3d06e8d9d27ffea3f5,2018-01-25 21:49:14,2018-01-31 22:17:51,2018-02-19 19:38:33,24.909247685185186,109.99,Late,-23.023000824284168,-43.47511887315199,rio de janeiro,RJ,22790
f38bcea38944dc89223a23571a1207e5,2018-07-24 22:36:15,2018-07-26 22:45:11,2018-07-31 15:48:48,6.717048611111111,126.8,Late,-22.90046218072698,-43.10463788580232,niteroi,RJ,24220
4e1fb96e2f63c315a9ca0c11d9254ada,2018-08-14 20:06:02,2018-08-16 20:24:03,2018-08-23 17:30:59,8.89232638888889,659.99,Late,-22.978469157654736,-43.23383336857298,rio de janeiro,RJ,22451
9ad89864a2f76f00c0d73d78e7a6aa1e,2017-07-15 19:02:17,2017-07-21 19:10:20,2017-07-26 18:33:05,10.979722222222222,159.9,Late,-19.951293039125225,-43.92794093476264,belo horizonte,MG,30310
4059a20ed837ba80adc17e94bf2f852f,2018-01-31 10:51:27,2018-02-06 14:03:51,2018-02-08 22:23:05,8.480300925925926,29.99,Late,-20.332651062269264,-40.27822657060944,vila velha,ES,29101
3e160e93900d5da52f6a8e6fc88d737c,2017-03-04 19:54:16,2017-03-16 20:05:11,2017-04-03 15:18:04,29.808194444444446,314.99,Late,-22.73531275120386,-46.87822029667008,pedreira,SP,13920
b9fc4defdaf807a54f5a0362c764d384,2017-12-06 18:08:25,2017-12-13 03:13:59,2017-12-26 20:15:27,20.088217592592592,119.99,Late,-24.492024672024534,-47.84622829333712,registro,SP,11900
7e486325a643ff4ed591ad4fd1b80d16,2017-11-23 15:40:50,2017-11-30 03:52:14,2017-12-27 01:56:48,33.42775462962963,236.9,Late,-22.97217735137628,-43.41400202787249,rio de janeiro,RJ,22783
a244dfc2d80e0857a17cfd3b58ee9321,2018-06-12 17:38:40,2018-06-18 17:39:28,2018-07-12 20:38:39,30.124988425925928,247.9,Late,-20.801565591983028,-51.73007622974795,tres lagoas,MS,79630
adbac4b12d94ba3f3e7c47dfe548fc81,2017-09-15 12:14:10,2017-09-21 12:35:09,2017-09-22 16:57:27,7.196724537037037,45.0,Late,-23.4822960313636,-46.602083032748574,sao paulo,SP,2242
b7775ddf9a56a4bbabff3e2e84c08b07,2017-10-27 18:19:14,2017-11-03 18:30:26,2017-11-07 20:08:57,11.07619212962963,299.9,Late,-7.58990173413536,-35.09618476586463,condado,PE,55940
a6170e3ff851a854fb8e7240ca7bf02a,2018-02-09 08:30:37,2018-02-15 02:49:26,2018-02-27 21:15:22,18.531076388888888,49.9,Late,-19.465674956979626,-42.5229453075192,ipatinga,MG,35164
bf2cb71b1f79c1f44fbd98358c2ba7b4,2018-06-14 00:13:09,2018-06-19 00:32:18,2018-06-22 00:48:32,8.02457175925926,48.9,Late,-22.907582100209986,-43.26637860020999,rio de janeiro,RJ,20950
69bec49dcedcbf07e8333244796dd70a,2018-05-22 22:16:29,2018-05-28 23:18:00,2018-06-07 16:54:20,15.776284722222222,19.0,Late,-22.970407499999997,-43.39390725,rio de janeiro,RJ,22775
ed9fb3a28b1ec934fa636779c9d1a3ba,2018-08-17 13:16:18,2018-08-22 14:30:20,2018-08-24 22:47:32,7.396689814814815,27.89,Late,-23.72983117854737,-46.56904406075599,sao bernardo do campo,SP,9850
252a22829815d332157a9f3a8fe174e6,2017-09-13 10:58:28,2017-09-19 11:25:12,2017-09-22 17:52:00,9.287175925925926,199.0,Late,-12.998274222948176,-38.46469274797886,salvador,BA,41830
a3387455ec2a51ea33eb1d7557994979,2018-06-01 12:50:14,2018-06-07 13:12:38,2018-06-08 18:08:28,7.22099537037037,99.9,Late,-5.118556499999997,-42.80129325,teresina,PI,64002
4b4a19bd8b1065ce9a4f227eff142150,2018-02-16 15:07:18,2018-02-22 14:26:52,2018-03-14 20:36:23,26.228530092592592,114.0,Late,-28.245753319854476,-48.6746675420839,imbituba,SC,88780
8a1d9b0c823a8c653a9662d0a0759306,2018-05-20 15:47:53,2018-05-22 16:19:23,2018-05-24 17:32:15,4.072476851851852,159.0,Late,-22.95384769167274,-43.179375039125226,rio de janeiro,RJ,22290
f01de19516748496ecf55ffc821fad6f,2017-11-25 11:38:38,2017-11-30 11:51:40,2017-12-07 18:35:53,12.289756944444445,69.9,Late,-21.78701858524133,-46.55881081690903,pocos de caldas,MG,37701
ffb18bf111fa70edf316eb0390427986,2017-11-27 13:29:05,2017-12-01 13:39:22,2017-12-05 18:38:53,8.21513888888889,99.0,Late,-17.888562259687014,-51.721550764724206,jatai,GO,75800
bd26f79807cb5e17e470195232bf67d7,2018-04-19 20:52:31,2018-04-25 21:10:11,2018-04-27 16:46:50,7.829386574074074,44.9,Late,-29.57133068185135,-50.800033659609944,igrejinha,RS,95650
7a3dbfe3daed55f0b5f34c4f9e73940a,2018-01-07 22:08:45,2018-01-11 22:15:30,2018-01-19 03:16:54,11.213993055555555,23.9,Late,-20.34581012132969,-40.28512523331765,vila velha,ES,29101
f31821b89453086fb83d13d1ce46a51e,2017-08-22 14:21:28,2017-08-30 02:55:25,2017-09-13 17:16:10,22.121319444444445,12.99,Late,-22.371607417784613,-47.40164418690301,araras,SP,13602
a3725dfe487d359b5be08cac48b64ec5,2018-05-12 12:28:58,2018-05-15 15:30:28,2018-06-01 15:18:45,20.117905092592594,14.99,Late,-11.851314806868372,-55.51250266205545,sinop,MT,78550
314313f56bd89ca04231bb9378291806,2018-04-23 21:10:23,2018-04-30 03:31:39,2018-05-03 22:26:48,10.05306712962963,40.0,Late,-20.331065312927773,-40.28067801991935,vila velha,ES,29101
403ee67b92b2fc4c2c2ece77d61b168c,2018-05-05 11:09:09,2018-05-10 11:30:24,2018-05-11 14:57:03,6.1582638888888885,6.9,Late,-22.892980001673443,-43.27657853733622,rio de janeiro,RJ,20775
31237045dc3ee5243375baaaa729188e,2018-05-12 23:26:04,2018-05-16 23:35:14,2018-05-23 16:22:41,10.705983796296296,39.0,Late,-26.295078394396654,-48.844716123925195,joinville,SC,89201
af4b4e5e7cc290c42e0935df9ff3479c,2018-03-10 16:34:24,2018-03-27 16:50:26,2018-04-13 11:46:27,33.80003472222222,129.89,Late,-29.16754524704212,-51.18856143881803,caxias do sul,RS,95020
2bedc0d7231e504d0476c606108e7e73,2018-06-13 01:57:22,2018-06-20 02:59:41,2018-06-21 11:56:46,8.41625,69.45,Late,-21.77675832361936,-48.18656973980032,araraquara,SP,14802
9758212b340212a84d22f713ce2e0fa8,2018-03-04 18:58:06,2018-03-08 19:15:27,2018-03-28 01:56:44,23.290717592592593,115.0,Late,-19.909078250072106,-44.00488730890417,belo horizonte,MG,30870
00750f68bb64537034e93554c64b41b5,2017-11-12 09:50:55,2017-11-17 10:10:32,2017-11-14 22:34:39,2.5303703703703704,129.0,Quick,-23.672056986410002,-46.44219782970755,maua,SP,9350
dda7f5aa048d24b2d639d470786b0564,2017-12-08 11:23:41,2017-12-18 11:31:29,2018-01-15 23:51:50,38.51954861111111,99.0,Late,-25.399453588954923,-49.258272966270475,curitiba,PR,82200
a6ecc5068e6e585b2dca3e496ba4b277,2018-07-13 16:14:24,2018-07-17 14:50:16,2018-07-24 21:48:39,11.232118055555556,132.2,Late,-22.59801610645101,-48.78071001369745,lencois paulista,SP,18681
5a88485f2ce99d0ad48fd3c2375409fb,2018-03-05 10:47:05,2018-03-09 11:09:39,2018-03-15 22:32:49,10.490092592592593,122.99,Late,-27.602575962808015,-48.52663206786308,florianopolis,SC,88040
a5193a3fb5d87ef36d9c60ae7085dbb9,2017-04-02 09:24:49,2017-04-06 09:35:08,2017-04-12 16:23:32,10.290775462962962,19.99,Late,-22.229149883433454,-45.93744348647288,pouso alegre,MG,37550
5f6336571c2c474d5cd8e7ceb3d080ee,2018-08-14 17:49:17,2018-08-20 18:44:05,2018-08-30 14:58:45,15.881574074074074,105.0,Late,-22.775776109287694,-41.913470650276324,armacao dos buzios,RJ,28950
d6b2e1ec7df97339dcd2bea853f8ff0a,2018-08-07 18:00:51,2018-08-09 18:10:18,2018-08-13 22:18:40,6.179039351851852,129.9,Late,-22.904202414391953,-43.11466126781705,niteroi,RJ,24220
1b15974a0141d54e36626dca3fdc731a,2018-02-22 15:30:41,2018-03-01 02:50:48,2018-03-05 15:22:27,10.994282407407407,100.0,Late,-23.528161488199004,-46.619897097005,sao paulo,SP,3029
868368a37fa61f7147c73d271f0f7d81,2018-01-11 19:54:27,2018-01-17 20:07:28,2018-01-27 14:25:09,15.771319444444444,29.5,Late,-12.944242708781244,-38.41643504614688,salvador,BA,41740
5e54bd3e9a482630f9d68d9624b9b5f6,2018-05-07 13:26:30,2018-05-11 15:31:02,2018-05-10 02:41:40,2.552199074074074,48.9,Quick,-23.673716999999996,-46.73431152943036,sao paulo,SP,4902
2860a8f93184d56f89d3b2aebb912a83,2018-06-18 10:01:17,2018-06-21 10:20:10,2018-06-20 14:59:39,2.207199074074074,48.0,Quick,-23.954883296150904,-46.34510548765075,santos,SP,11070
b9f985da9b5605e8f6b1fb0558b8c88a,2017-11-17 22:06:54,2017-11-22 22:26:10,2017-11-30 22:32:53,13.018043981481481,190.9,Late,-23.628808655288804,-46.636372759651394,sao paulo,SP,4304
fb1ed0a411ea8819f0de26fd7736873d,2017-05-19 07:31:42,2017-05-25 07:42:45,2017-05-25 13:54:43,6.265983796296296,143.8,Late,-23.179335065785633,-45.85412077684809,sao jose dos campos,SP,12220
b21c9bac60c92e8b6ba770accf270445,2018-03-01 13:15:46,2018-03-07 13:30:32,2018-03-19 13:58:46,18.02986111111111,175.0,Late,-22.922946587281476,-43.63504937607479,rio de janeiro,RJ,23585
d6e86df5b1614d493da54c4c87ce7f2d,2017-07-17 17:10:33,2017-07-25 17:23:31,2017-08-11 21:15:15,25.169930555555556,169.9,Late,-15.572994163591309,-56.03094489174511,cuiaba,MT,78058
db2eafd064193f2bd9dd161490c09bd0,2017-08-30 09:30:42,2017-09-06 09:25:13,2017-09-11 19:16:34,12.406851851851853,179.9,Late,-22.921583218420047,-43.231316835420344,rio de janeiro,RJ,20540
d2ce3fa6247aeec43a75906e36600045,2018-02-28 22:21:37,2018-03-06 22:30:41,2018-03-09 23:56:54,9.066168981481482,58.46,Late,-20.51873668983786,-43.704319844465395,ouro branco,MG,36420
37467cda81e62d78bf86acfaa7d9b030,2017-11-14 22:18:48,2017-11-20 22:30:24,2017-11-29 18:48:52,14.854212962962963,29.9,Late,-29.68772540333196,-51.45616326980527,montenegro,RS,95780
de7cb4087303bc8d6dac30bc222fdc12,2018-01-24 19:13:01,2018-01-30 19:31:38,2018-01-30 00:03:37,5.201805555555556,35.0,In Time,-20.348074941308646,-40.2878025,vila velha,ES,29101
2ca369587935712412b0097c8b319bb6,2018-07-15 18:28:55,2018-08-02 18:45:11,2018-08-06 23:11:48,22.19644675925926,159.98,Late,-22.96264925313053,-43.21796667652485,rio de janeiro,RJ,22461
ab21d46cb0d123ea937d107425f82829,2018-06-17 22:08:14,2018-06-19 22:31:24,2018-06-25 17:22:32,7.801597222222222,42.97,Late,-23.32689447792723,-51.1579120284494,londrina,PR,86010
1c1f19ca40392b67aa5f9627ad2d1029,2018-01-22 17:42:03,2018-01-26 17:54:40,2018-01-26 17:52:00,4.006909722222222,89.9,In Time,-23.431482136274457,-46.50641345184375,guarulhos,SP,7141
54385d537116e5d01683eb06b3828d8e,2018-07-27 22:57:48,2018-08-05 23:10:12,2018-08-10 19:20:46,13.849282407407408,179.9,Late,-21.238641802828308,-45.00740781753249,lavras,MG,37200
b9bb886788ba323922f55f604ba5ff5e,2018-07-02 17:39:38,2018-07-04 17:55:09,2018-07-10 16:10:55,7.938391203703704,514.9,Late,-20.259022853929004,-42.02997720398297,manhuacu,MG,36900
9272ebd4d3ac6aa5a0c21a6ea630574f,2018-06-15 23:13:29,2018-06-18 23:31:51,2018-06-21 22:14:36,5.959108796296296,36.99,Late,-21.162940172436006,-47.80098693038497,ribeirao preto,SP,14085
c79fcf430e3532739c1344bdc0a021db,2017-02-02 17:22:31,2017-02-09 17:22:31,2017-02-17 14:09:11,14.86574074074074,99.0,Late,-13.002814446015355,-38.46594394670786,salvador,BA,41830
fdf04954953ea35ab3c35d7518c0c0e2,2017-02-25 18:09:01,2017-03-02 18:21:59,2017-03-07 08:23:57,9.593703703703703,134.9,Late,-23.95770440328345,-46.34992238871249,santos,SP,11070
0b82a32f3caec8e9157049e294486ade,2018-02-19 15:33:55,2018-02-23 16:35:26,2018-03-05 20:34:32,14.208761574074074,54.99,Late,-16.442640130657267,-51.12536175845826,ipora,GO,76200
b40657a8b73e674b61107a06e46b6f8d,2018-08-02 21:11:41,2018-08-06 22:10:23,2018-08-08 01:46:48,5.19105324074074,10.0,Late,-23.000529456575606,-43.345674167638066,rio de janeiro,RJ,22631
f294b6c586ebebae6fcdd9818f7381ff,2018-06-16 07:17:49,2018-06-22 03:57:13,2018-06-25 21:12:01,9.579305555555555,112.0,Late,-18.894663552686215,-41.9441083381548,governador valadares,MG,35043
fb95aa20d91cfc568a3bd223c03e9eff,2018-04-28 20:14:48,2018-05-07 20:30:54,2018-05-09 19:17:32,10.96023148148148,88.0,Late,-23.315950938675176,-46.22962200405393,santa isabel,SP,7500
b8ab7d209a05e9462921ece50de1c177,2017-09-08 14:53:33,2017-09-18 04:26:08,2017-09-28 22:47:08,20.328877314814815,59.9,Late,-23.01447604273191,-43.446699517773595,rio de janeiro,RJ,22790
522a5e4ad2f2d51be25ae597da2b8197,2018-02-25 18:05:13,2018-03-01 18:15:29,2018-03-19 15:41:47,21.90039351851852,67.9,Late,-23.523015715017824,-46.57095914377229,sao paulo,SP,2178
e1ccac2f83d9ae0c22cd16e9573c3f5c,2018-01-16 17:55:45,2018-01-22 18:11:36,2018-01-25 12:44:53,8.78412037037037,149.0,Late,-26.993765999999944,-48.63907699999996,balneario camboriu,SC,88330
1f67d1f09d1858b5d12a7548b258fe95,2018-06-12 20:46:51,2018-06-18 21:23:43,2018-06-19 15:18:52,6.772233796296296,49.99,Late,-22.90318680042141,-43.11359204581899,niteroi,RJ,24220
521a65cfd386ce592bb2ef094c71ed9a,2017-11-06 19:19:24,2017-11-10 19:30:36,2017-11-10 18:41:53,3.973946759259259,99.9,In Time,-23.647702002221703,-46.74786646794391,sao paulo,SP,5835
4574345c7d99730212061b6152f81928,2017-09-12 15:29:33,2017-09-18 15:44:19,2017-09-22 17:39:56,10.090543981481481,229.9,Late,-22.726755524006013,-47.31709805912052,americana,SP,13472
63514fae43596b11a770416049c86856,2018-07-12 10:59:24,2018-07-16 12:06:05,2018-07-23 20:56:34,11.414699074074074,131.0,Late,-19.936245142939562,-43.93639273076931,belo horizonte,MG,30130
ac494f2492ac7cf8a41a392e48a51235,2017-08-27 17:01:15,2017-09-13 17:10:25,2017-09-01 15:22:06,4.931145833333333,29.99,In Time,-20.588555353653195,-47.87616296791385,sao joaquim da barra,SP,14600
c6f821236b635a442caa06bbe3c7e109,2017-10-16 18:08:18,2017-10-24 03:16:05,2017-10-24 20:09:53,8.084432870370371,45.9,Late,-23.963658013330196,-46.34383031695425,santos,SP,11065
b56a08892adc73d4813e06c3e62f6bfb,2017-06-10 12:37:02,2017-06-15 13:02:17,2017-06-22 19:57:50,12.306111111111111,33.0,Late,-19.860155601448398,-43.95087322162271,belo horizonte,MG,31270
b6f445cf5a3df2567435ce41a1ad3708,2017-07-24 13:40:42,2017-07-31 21:45:10,2017-08-09 17:41:41,16.167349537037037,64.9,Late,-7.065509008050083,-34.84709830766342,joao pessoa,PB,58035
d821b5e67b0018013d207479dfdfccd6,2018-07-26 16:57:05,2018-07-30 17:10:07,2018-08-01 13:46:48,5.8678587962962965,59.0,Late,-22.436027115022736,-50.58578995064295,paraguacu paulista,SP,19700
f5eda04cf77ec4fc17a1c7a4e8984afb,2018-07-02 09:14:07,2018-07-09 10:30:48,2018-07-14 09:34:39,12.014259259259259,119.0,Late,-22.922956021902515,-47.09450921246148,campinas,SP,13050
19d8b9d9a60cda90fc402ad5580a0faf,2017-06-09 22:49:58,2017-06-14 23:05:10,2017-06-19 14:06:04,9.636180555555555,169.99,Late,-19.82151517256981,-43.99333533508005,belo horizonte,MG,31540
49e46b4388f4b9ea96901467bd26eb6d,2018-08-03 20:20:47,2018-08-07 20:30:19,2018-08-13 09:47:40,9.560335648148149,49.0,Late,-23.158886608872304,-49.97327207435557,jacarezinho,PR,86400
7e093cfcd0f2a3b150e15125356fc4d3,2018-06-22 13:22:45,2018-06-28 13:40:23,2018-06-26 15:18:23,4.0803009259259255,168.0,In Time,-23.550957911737562,-46.65356039731085,sao paulo,SP,1415
152c5ae80410664de684b6759b52076f,2018-03-11 19:09:18,2018-03-15 19:27:53,2018-04-10 22:12:29,30.127210648148147,135.0,Late,-27.857973614370188,-54.473587022921556,santa rosa,RS,98780
84e18dccfd5aad7f91ef778c2aa0b959,2018-08-09 12:37:17,2018-08-15 15:05:34,2018-08-15 15:35:47,6.123958333333333,28.9,Late,-21.15866092339433,-47.79192307660568,ribeirao preto,SP,14085
97d8971fa48ff1a5146f0bab9124382c,2017-02-23 15:32:20,2017-03-02 15:32:20,2017-03-06 17:31:47,11.082951388888889,69.9,Late,-21.209511216486817,-47.791627465029705,ribeirao preto,SP,14020
9e98692197ace8ec15c6db45b5bfd9bf,2017-11-25 20:35:35,2017-11-30 20:51:52,2017-11-28 20:11:01,2.9829398148148147,19.99,Quick,-23.56769747100232,-46.698420577990646,sao paulo,SP,5424
758bed4c2450a7378b75ad480da89662,2017-09-04 21:48:50,2017-09-11 22:04:15,2017-09-08 21:17:45,3.978414351851852,719.0,In Time,-23.69133855063776,-46.586483172081465,diadema,SP,9950
9f101be6d0a10cb40cc622691e49714c,2017-08-07 11:29:34,2017-08-11 12:03:20,2017-08-14 14:56:38,7.143796296296296,59.9,Late,-23.686150211592487,-46.69345841828658,sao paulo,SP,4661
77840c00dc79e7841ea2e4b1de1f21e8,2017-11-24 23:28:14,2017-12-04 02:59:26,2017-12-19 02:27:41,24.124618055555555,49.0,Late,-20.669676895501777,-43.80910320699283,conselheiro lafaiete,MG,36400
8882b69ff0006727224cd56da4932e89,2017-03-16 12:03:27,2017-03-23 12:03:27,2017-03-30 15:42:36,14.1521875,34.0,Late,-21.249896329901745,-45.01383016294554,lavras,MG,37200
ba0c09b77bd8f01147e2e0cd34bc30a9,2017-07-12 11:48:27,2017-07-19 11:55:13,2017-07-20 19:19:42,8.313368055555555,199.9,Late,-20.181915486918328,-48.025696575674225,miguelopolis,SP,14530
ede12c5ebde30b74b530b13251f2951d,2017-12-11 21:34:02,2017-12-15 21:52:18,2018-01-04 17:35:42,23.83449074074074,79.9,Late,-19.929930683882457,-43.942548949766255,belo horizonte,MG,30140
95c6db0572aa00cdfc22e3419805ffc0,2018-06-16 20:31:37,2018-06-21 20:58:08,2018-06-25 19:14:47,8.946643518518519,187.0,Late,-15.763418999999995,-47.888637750000015,brasilia,DF,70747
65d94fd101d96f0d048472f89b348703,2017-07-10 08:32:20,2017-07-14 08:45:12,2017-07-17 18:48:22,7.427800925925926,89.9,Late,-22.859487921606224,-47.21616092160621,hortolandia,SP,13183
f9fe6e11e33871e71f921d5051e72bb4,2018-03-06 19:21:47,2018-03-12 19:35:28,2018-03-17 17:08:21,10.907337962962963,34.9,Late,-22.907340864881377,-43.10383163437968,niteroi,RJ,24230
2ef7655210817ffa67b86a61331b4c92,2017-07-15 18:05:13,2017-07-20 18:15:20,2017-07-24 14:18:10,8.842326388888889,179.9,Late,-25.438269080760605,-49.30023711183575,curitiba,PR,80730
9cf86370700477e2bf11be1e7f3d16e6,2018-01-01 20:18:40,2018-01-05 20:29:24,2018-01-09 20:41:57,8.016168981481481,198.9,Late,-19.754783047917414,-40.38636400995212,joao neiva,ES,29680
3eef2a97c78803eb4ae9dfd2a5779e62,2017-11-13 15:47:43,2017-11-20 16:08:21,2017-11-24 14:47:01,10.957847222222222,137.9,Late,-22.919995756770586,-43.09392220461345,niteroi,RJ,24360
5d0b303a697b0b722ed82edf076fa3ef,2018-08-18 22:35:00,2018-08-24 10:50:36,2018-08-24 16:36:28,5.751018518518518,18.0,Late,-24.52161456757337,-48.11001367120789,eldorado,SP,11960
cd3bbc3e4e64dc523b4c21512736e22c,2017-05-01 17:42:25,2017-05-05 17:55:16,2017-05-15 08:12:33,13.604259259259258,149.9,Late,-13.065793311777684,-55.92256536621605,lucas do rio verde,MT,78455
964dededc234258fbc1fc91815fded33,2017-12-08 10:47:59,2017-12-14 10:55:28,2017-12-18 19:34:18,10.365497685185185,29.99,Late,-19.95295050678067,-43.92935497599398,belo horizonte,MG,30310
569845b2e86bae348e1de3d79305e647,2018-05-18 14:43:27,2018-05-24 14:57:39,2018-05-23 19:48:19,5.211712962962963,53.9,In Time,-23.089599650008694,-47.214239998470795,indaiatuba,SP,13330
d44bd377d793dc513e7cc2bdcd42488c,2018-08-23 19:18:28,2018-08-29 02:35:10,2018-08-28 14:17:35,4.791053240740741,79.99,In Time,-23.120764674895433,-47.246298545455204,indaiatuba,SP,13348
81b1c5ab3c30ee9f67392bbd60dc0f58,2017-09-27 13:28:47,2017-10-09 02:14:19,2017-10-09 22:23:03,12.371018518518518,158.0,Late,-23.000219661287947,-47.52619998386385,capivari,SP,13360
e0f5bf74f8214bc636d6f1d63310577e,2018-06-13 13:38:51,2018-06-20 04:15:08,2018-06-22 20:14:42,9.274895833333334,14.9,Late,-23.52773504312137,-46.73639800210442,sao paulo,SP,5311
a562dc4f82a34303219d36cffb2cdd2c,2018-03-06 14:17:27,2018-03-13 14:10:29,2018-04-13 14:56:34,38.02716435185185,175.0,Late,-27.446557128224374,-48.39675015070118,florianopolis,SC,88058
d1ccf9110e914e714e76f6434142710f,2018-05-03 17:36:45,2018-05-09 18:14:52,2018-05-14 19:48:48,11.09170138888889,127.0,Late,-27.08959159373639,-48.609968673988575,itapema,SC,88220
683076b91bcaf79259334f6aa80d41a3,2017-02-07 11:32:53,2017-02-13 11:32:53,2017-02-13 11:09:14,5.983576388888889,27.0,In Time,-23.55541332604684,-46.71516617643283,sao paulo,SP,5465
7df81d6dcc2ba63195a6197f6362c4bb,2018-04-03 17:55:34,2018-04-09 18:10:20,2018-04-06 22:47:33,3.2027662037037037,99.0,In Time,-23.671193071873812,-46.47817577906978,maua,SP,9371
84ca1ce0b502782387a2afcd5a8e9356,2018-03-02 13:08:30,2018-03-08 02:51:11,2018-03-16 17:51:59,14.196863425925926,7.78,Late,-22.948280116927908,-47.10660905632569,campinas,SP,13050
c924e1b4e4e8406a086385b5136d25a3,2017-10-31 17:26:08,2017-11-07 17:35:24,2017-11-07 19:38:49,7.0921412037037035,70.89,Late,-19.857886878440723,-43.956893383432366,belo horizonte,MG,31270
78ee278a8625d5e2b84e5b9133ce217f,2018-04-30 16:50:16,2018-05-07 02:31:06,2018-05-09 21:08:43,9.179479166666667,99.9,Late,-22.55485206578562,-44.14880077684809,barra mansa,RJ,27331
e06c6d2cccfbf53339917bf60c317955,2018-03-11 11:45:43,2018-03-16 17:29:47,2018-03-19 15:03:18,8.137210648148148,37.5,Late,-22.407702265883813,-47.56067614596932,rio claro,SP,13500
5739eb8dc1389c46e5ff8fc605a6ba44,2018-05-21 19:44:09,2018-05-23 21:15:40,2018-05-23 16:33:19,1.8674768518518519,20.9,Quick,-22.916972398291787,-43.25510362101102,rio de janeiro,RJ,20560
a971cf0a515e6051941bd05ff3efc0d7,2018-08-02 18:14:03,2018-08-06 18:25:21,2018-08-14 22:21:25,12.171782407407408,74.8,Late,-10.537203048664592,-38.1119736032531,adustina,BA,48435
6e18b903d38ac38420a6d094ebaebb50,2018-03-28 15:42:20,2018-04-05 03:26:58,2018-04-09 20:51:01,12.214363425925926,29.9,Late,-20.4069545015351,-42.890466719806895,ponte nova,MG,35430
16bcafd500d4d2303b76bb9d95a1c5d0,2018-03-20 21:15:50,2018-03-26 21:28:31,2018-03-29 22:03:44,9.03326388888889,55.99,Late,-21.16628344157196,-47.835754166801344,ribeirao preto,SP,14051
f5017de8931860a4492e26d3f22405b6,2018-01-16 18:16:35,2018-01-24 02:12:53,2018-01-26 18:44:08,10.019131944444444,13.3,Late,-24.242737686204155,-46.8878131618526,itanhaem,SP,11740
36377e52aa9971718dd22913580b7799,2018-08-14 08:38:20,2018-08-16 08:50:16,2018-08-21 15:38:49,7.292002314814815,180.0,Late,-20.135424062558744,-44.86915823918709,divinopolis,MG,35500
a0d9d006e35f0bcdcd62b6a56157ae3d,2017-11-06 17:11:14,2017-11-13 17:26:50,2017-11-11 13:39:02,4.8526388888888885,38.4,In Time,-23.614070448785316,-46.68017475491955,sao paulo,SP,4562
5ba2971983dbd7066539c01bcaad029d,2017-08-23 12:17:57,2017-08-31 03:15:43,2017-08-29 15:58:57,6.153472222222222,25.0,In Time,-23.579754475157266,-46.65478721120668,sao paulo,SP,4005
377eef73ad584b24afe1da9bb3edd04b,2017-10-19 16:48:46,2017-10-26 02:56:24,2017-10-23 20:49:38,4.167268518518519,104.9,In Time,-19.843884965747232,-44.03260975758758,contagem,MG,32185
cdaf4ca1fc6d2b2304d8224ea767038e,2018-07-18 22:04:06,2018-07-22 22:22:33,2018-07-24 21:22:31,5.971122685185185,99.9,Late,-22.878672296150903,-43.36399490383172,rio de janeiro,RJ,21330
7870e4898f865975acb43fb1c282f4d3,2017-08-06 17:26:40,2017-08-10 17:42:58,2017-08-08 21:35:26,2.1727546296296296,59.99,Quick,-23.112327906718892,-46.55720179693303,atibaia,SP,12940
08ba140da4dd8ad477f0f3e9793edcec,2018-04-23 16:04:18,2018-04-30 09:30:57,2018-04-27 20:23:31,4.180011574074074,89.0,In Time,-23.452255582289816,-47.511224596860764,sorocaba,SP,18071
61a4e749e6975384980e883fc5653d8b,2017-07-21 15:08:23,2017-07-27 15:55:29,2017-08-04 16:47:30,14.068831018518518,249.9,Late,-20.13995943712605,-44.89219187235318,divinopolis,MG,35500
f162504b437717036cc81bdd9a02c4ba,2018-08-21 14:42:00,2018-08-23 14:55:10,2018-08-30 13:37:38,8.955300925925926,179.0,Late,-29.44168468504244,-51.51417891710044,salvador do sul,RS,95750
93240f6a90ae9889c692787235e66a0c,2018-01-11 11:16:49,2018-01-18 02:31:55,2018-01-23 14:17:22,12.125381944444445,189.0,Late,-22.89198366795095,-43.1211085781907,niteroi,RJ,24020
55c863e656258bebf75d429db9055bec,2017-04-10 10:00:25,2017-04-14 10:15:15,2017-04-18 12:35:28,8.10767361111111,259.9,Late,-22.851681852068776,-47.1646407470137,sumare,SP,13180
658882f50a73a92d5e716220da758ab0,2018-05-14 18:58:43,2018-05-18 19:18:08,2018-05-21 18:20:55,6.97375,139.88,Late,-20.734588012370757,-42.86461691408566,vicosa,MG,36570
911e973fcd823c79ed2f924eef8b0874,2018-02-19 15:19:49,2018-02-23 16:27:25,2018-02-21 22:12:50,2.28681712962963,339.99,Quick,-23.565658965231105,-46.577619927478594,sao paulo,SP,3186
d7ade8c5f36a13fc95c8251b9db08874,2018-05-21 16:42:29,2018-05-28 08:16:23,2018-06-04 15:24:37,13.945925925925925,6.0,Late,-22.973187278665755,-43.19039403442203,rio de janeiro,RJ,22051
f72e1fcd8c83f302bbb4a322b118531d,2018-02-08 10:02:09,2018-02-14 10:15:30,2018-02-20 21:29:44,12.477488425925927,22.9,Late,-23.006040129061102,-43.42827969262502,rio de janeiro,RJ,22793
e9b51b55b60f8de82106bf9f1470c801,2018-07-10 16:24:21,2018-07-16 16:31:09,2018-07-16 15:03:32,5.943877314814815,170.3,In Time,-23.657726703300842,-46.63734372355594,sao paulo,SP,4324
f3290f4b0c78e37eff2ade0174b0c307,2017-04-27 17:58:30,2017-05-04 18:10:23,2017-05-12 14:32:41,14.85707175925926,59.9,Late,-23.18421767309783,-50.666102612928356,cornelio procopio,PR,86300
50f3744f49a3eebbef56210a31a6d365,2017-11-24 21:59:42,2017-12-04 03:33:09,2017-12-13 17:39:09,18.8190625,48.9,Late,-21.558756055141963,-45.731400723034,paraguacu,MG,37120
8a86aed13f75de6f6db042ac9465e231,2017-12-12 22:48:46,2017-12-18 22:58:29,2017-12-18 14:42:51,5.66255787037037,29.0,In Time,-21.87186968658535,-51.85103254218365,presidente venceslau,SP,19400
7db5f2eb8f5f54db9f9e71ba4296bcbf,2017-05-30 11:00:28,2017-06-07 11:10:16,2017-06-14 16:27:54,15.22738425925926,134.9,Late,-17.220980847286768,-46.86387982436219,paracatu,MG,38600
dbadf0264f5a2b239bea146da1b1f567,2017-08-08 19:41:27,2017-08-16 19:43:56,2017-08-18 20:15:41,10.023773148148148,35.39,Late,-19.971204245340257,-43.95103220468583,belo horizonte,MG,30360
6f7ea3cb9fdeb4cb0d48e1933d792a56,2018-02-28 10:23:40,2018-03-07 02:55:28,2018-03-15 18:06:34,15.321458333333334,379.89,Late,-23.532868152374615,-46.66033569525076,sao paulo,SP,1233
6a152f5684d235853de99a54ee7e8065,2018-04-16 20:15:53,2018-04-20 20:51:35,2018-04-24 22:32:28,8.094849537037037,737.99,Late,-19.977149734116182,-44.052114404668444,belo horizonte,MG,30690
421266486e0fff23de13b5302127280e,2017-11-07 08:39:21,2017-11-16 02:47:16,2017-11-18 02:21:38,10.73769675925926,99.9,Late,-21.626076711979792,-42.101225344690846,aperibe,RJ,28495
3d421d7db55efafc84d7e3a6d8bbe4c2,2018-06-15 15:23:07,2018-06-21 06:31:07,2018-06-29 13:09:37,13.907291666666667,694.65,Late,-20.012705886061724,-45.97062621643176,bambui,MG,38900
14676aebeb151a1fa4f20e8fc3544621,2018-02-17 16:39:44,2018-02-22 15:50:36,2018-03-10 00:12:46,20.31460648148148,96.0,Late,-22.76232919513857,-43.45420259506751,nova iguacu,RJ,26255
5a04c1749a15cae43d54621e2f1bc596,2017-10-24 16:48:16,2017-11-01 03:08:58,2017-11-01 17:46:42,8.040578703703703,249.9,Late,-20.761820368395412,-42.88029364212381,vicosa,MG,36570
d55cd104a6a05987a3b55d39c0e77995,2017-11-29 18:34:29,2017-12-05 18:49:14,2018-01-16 17:09:31,47.94099537037037,133.0,Late,-22.88621741909516,-43.363361678169646,rio de janeiro,RJ,21330
14763e794086449f6d5cb89097b2afd3,2017-08-04 19:48:45,2017-08-10 20:03:33,2017-08-18 21:23:31,14.065810185185185,149.9,Late,-12.965642732321477,-38.43116454579735,salvador,BA,41720
46d2062e8a19cb5473491cf07b5d4629,2017-02-13 22:29:00,2017-02-17 22:29:00,2017-02-22 17:06:01,8.775706018518518,89.9,Late,-22.762124999999997,-42.860698866239694,itaborai,RJ,24808
2b8c5991476242babd85ba5b7ca5a7cd,2018-08-07 23:46:11,2018-08-14 00:05:02,2018-08-11 00:44:26,3.040451388888889,164.9,In Time,-19.97551649235395,-43.97311232653354,belo horizonte,MG,30575
fad470f7841d90564d1d57919dc69bda,2018-08-14 12:13:04,2018-08-16 12:25:17,2018-08-17 23:08:43,3.4553125,140.0,Late,-22.918328058168157,-47.06784794206877,campinas,SP,13036
712cb14ddeca38aaeb49dea61f811018,2018-02-27 15:22:01,2018-03-07 15:35:34,2018-03-09 23:08:38,10.324039351851852,47.2,Late,-19.647906279119166,-43.883522295906744,lagoa santa,MG,33400
fdeffd68ae417c6344e590b1f672da56,2018-06-23 15:30:35,2018-06-28 15:55:50,2018-06-27 18:45:45,4.135532407407408,129.97,In Time,-23.518683327238907,-46.18980481174882,mogi das cruzes,SP,8710
41c4b2ff8d7a24e95064ba2b122ec86a,2018-02-12 00:46:37,2018-02-16 01:20:51,2018-02-22 23:34:00,10.949571759259259,148.9,Late,-25.457441060505502,-49.27729033236193,curitiba,PR,80620
a20df1b1076ed252dc37fa9687207e02,2018-02-26 19:04:56,2018-03-02 19:31:40,2018-03-16 17:58:54,17.954143518518517,150.9,Late,-18.709978275513254,-40.402980282668246,nova venecia,ES,29830
29c3b79aace1b72a82b1232bf494e16f,2017-12-16 10:04:35,2017-12-27 10:15:25,2018-04-28 15:51:50,133.24114583333332,559.0,Late,-21.256343329447745,-44.992182510127556,lavras,MG,37200
9f07fd1359b3011a31560b21a4eb1fc4,2018-08-10 16:36:48,2018-08-15 16:50:14,2018-08-16 16:41:53,6.003530092592593,118.9,Late,-23.548356,-46.69065354717531,sao paulo,SP,5439
1973095f2596945f9dcc773608d8cad2,2017-02-08 21:42:21,2017-02-12 21:42:21,2017-02-13 22:55:29,5.050787037037037,54.9,Late,-23.472326640025365,-46.64270818428649,sao paulo,SP,2442
ec5a489ff2d239e7ef65ab8a3057caf2,2018-04-27 19:03:42,2018-05-04 19:15:19,2018-05-07 20:12:47,10.047974537037037,27.99,Late,-24.268612824530443,-49.72731533950922,jaguariaiva,PR,84200
71ca30b49c5b34847a66dd05c3a9f8e4,2017-05-26 10:44:07,2017-06-01 10:55:10,2017-06-27 14:27:58,32.15545138888889,37.9,Late,-26.919776188848854,-48.67287535313411,itajai,SC,88307
39f428ffba2a9207ffb6406237ffe25a,2018-02-22 12:32:29,2018-02-28 12:48:38,2018-03-22 23:48:51,28.469699074074075,49.9,Late,-22.96264074686946,-43.21786682347512,rio de janeiro,RJ,22461
20b919e05f847a4e3adcb4352ee309b8,2018-08-06 16:12:34,2018-08-09 16:24:39,2018-08-14 19:20:56,8.130810185185185,49.99,Late,-14.524058068245171,-49.155177261245704,uruacu,GO,76400
8c1340adfa38dcce671b3e2eaece6cdb,2017-06-27 10:57:42,2017-07-04 02:44:10,2017-07-08 12:32:01,11.065497685185186,89.99,Late,-27.66550259477211,-48.67845744562198,palhoca,SC,88135
7e8af96fabba7a99d5206b8db4b7b098,2018-06-05 23:14:51,2018-06-13 23:31:50,2018-06-14 20:06:22,8.869108796296297,59.99,Late,-22.90146231358318,-43.11063226842036,niteroi,RJ,24220
08a2bc9386ffb58b6637add8a8e7d4fc,2017-11-12 18:48:42,2017-11-17 18:55:31,2017-11-21 22:18:02,9.14537037037037,9.9,Late,-23.652745365803007,-46.530488295025705,santo andre,SP,9090
d5bd25a973bf9ea4a5fb210e058ede88,2018-06-01 18:39:25,2018-06-13 04:52:00,2018-06-11 17:24:45,9.948148148148148,86.99,In Time,-22.233300697232643,-45.93312176826284,pouso alegre,MG,37550
8c98ef4533089f5c372b7c3ae3b53851,2018-04-12 14:26:22,2018-04-19 02:30:42,2018-04-24 16:11:56,12.073310185185186,119.0,Late,-23.53597285667968,-46.651407002063245,sao paulo,SP,1216
12cce3d016df33ce0039ebb4ff5b5111,2017-12-15 18:01:37,2017-12-21 18:11:59,2017-12-27 18:37:33,12.024953703703703,99.9,Late,-19.842759000000004,-43.892979749999995,belo horizonte,MG,31995
eba9f7d9010e498a2fdd4a48583db537,2018-01-29 16:10:57,2018-02-02 16:31:39,,,79.99,Not Delivered Yet,-21.5425567144239,-42.18541113266008,santo antonio de padua,RJ,28470
76316d08dd15e53a577758b8f09059f0,2018-02-11 17:52:48,2018-02-15 18:08:22,2018-02-15 16:32:38,3.944328703703704,59.0,In Time,-22.733623781291488,-47.661769781291476,piracicaba,SP,13403
e62c3201015050463bc2e3b6599a6bc5,2018-02-27 14:44:44,2018-03-06 14:55:38,2018-04-24 23:04:15,56.34688657407408,69.0,Late,-22.91430804302037,-43.18330594823706,rio de janeiro,RJ,20230
8bad870bb86e0b67f6db07bb5e3c55c5,2018-06-24 19:13:23,2018-06-28 19:30:34,2018-07-03 04:38:35,8.3925,40.0,Late,-23.5305350044434,-46.455167519158586,sao paulo,SP,8230
c5f9c59800d0f2f6124ea0cfa1ae8d1f,2018-06-13 10:06:57,2018-06-19 10:32:34,2018-06-19 21:26:37,6.471990740740741,169.0,Late,-23.494437568692806,-46.846463643108315,barueri,SP,6454
2d290eb2fc05c9777775b838cb3dd768,2018-02-26 12:22:43,2018-03-02 12:30:50,2018-03-15 20:28:30,17.33734953703704,18.9,Late,-19.884926064462547,-43.97765166835648,belo horizonte,MG,31310
33eafd0ea4c37147b521b67b83b6769c,2018-07-03 22:04:06,2018-07-06 08:31:23,2018-07-06 20:41:42,2.9427777777777777,79.99,Late,-19.963097592273144,-43.935964638900174,belo horizonte,MG,30320
ceff388a23c12ac5dce0b56dad25602a,2018-02-19 14:02:29,2018-02-23 14:15:21,2018-03-10 00:03:17,18.41722222222222,19.5,Late,-16.75243980982073,-41.50744529345284,ponto dos volantes,MG,39615
bd96eed920dc1aa5f5ecefcae1ed673b,2018-02-14 20:21:40,2018-02-20 19:30:30,2018-02-24 01:03:50,9.195949074074074,148.0,Late,-23.26557281487679,-45.934314155288796,jacarei,SP,12301
800447e795f2bcf1009e0b2a88d05bbe,2018-05-16 17:20:12,2018-05-22 01:31:51,2018-05-21 15:06:45,4.9073263888888885,5.9,In Time,-23.978742150152925,-46.2994234365803,santos,SP,11030
adb1802d9eaab059b7b624f5013159c0,2018-07-31 11:36:09,2018-08-03 11:45:15,2018-08-02 22:51:56,2.4692939814814814,19.9,Quick,-23.676328289722694,-46.50637676017658,santo andre,SP,9121
efe34eef7701ffb344c58af77b116019,2017-11-07 14:37:06,2017-11-14 03:26:51,2017-11-13 11:38:42,5.876111111111111,150.99,In Time,-23.54946977906979,-46.655098297939915,sao paulo,SP,1243
512e1bc04cba5e60dd9771fd860c6dd0,2017-12-04 17:10:05,2017-12-08 18:08:28,2017-12-26 17:48:59,22.027013888888888,24.9,Late,-22.899014518177626,-43.26960120122336,rio de janeiro,RJ,20780
b26e3810d22f6c580f65bba31809c43a,2018-05-15 21:10:13,2018-05-22 17:30:54,2018-06-04 20:44:43,19.982291666666665,317.0,Late,-18.907105432136895,-48.246420531219385,uberlandia,MG,38405
076594c6ae7f8e1157b7321c148efa86,2017-07-01 09:43:49,2017-07-12 09:55:11,2017-07-20 19:09:47,19.393032407407407,159.99,Late,-19.50554946266378,-42.54813714516125,ipatinga,MG,35160
6746bff3c11cafd29a7f19f7fecd5107,2018-01-25 15:57:50,2018-01-31 16:18:24,2018-02-09 12:13:51,14.84445601851852,19.99,Late,-22.85278087953724,-43.26571283917128,rio de janeiro,RJ,21073
058b47cafcb62845676917a46cf732e4,2017-10-03 23:52:07,2017-10-10 22:28:23,2017-10-16 16:08:07,12.677777777777777,25.99,Late,-21.539987869976546,-42.18095893028583,santo antonio de padua,RJ,28470
8f04ccf58b2c11f758bbc1ac84b52a92,2017-12-26 16:10:03,2018-01-02 16:27:59,2018-01-16 20:34:31,21.183657407407406,89.9,Late,-22.90469203915388,-43.10621127932958,niteroi,RJ,24220
892b6462174cfb942fb8d9c8e0287c11,2018-04-20 11:40:22,2018-04-26 11:55:22,2018-05-04 19:17:42,14.317592592592593,889.0,Late,-23.00279958670457,-43.34316824409951,rio de janeiro,RJ,22631
36e16c2da456685fc88c12da6244c9af,2017-12-12 11:34:41,2017-12-19 02:50:19,,,34.99,Not Delivered Yet,-20.33400454728521,-47.78943878121845,ituverava,SP,14500
7578d16f248e3eb69ec30d3fb27a7a38,2018-02-09 20:20:01,2018-02-15 20:31:32,2018-02-27 23:33:52,18.134618055555556,49.99,Late,-21.79502811903742,-46.594872708322455,pocos de caldas,MG,37701
48b4f1f96d5ae13b404fe7d041a8d393,2018-08-09 13:41:59,2018-08-23 14:35:22,2018-08-24 16:44:28,15.126724537037036,66.99,Late,-9.972057572854755,-67.83064032361936,rio branco,AC,69918
0e391a35ebcc42be741987c538330764,2017-12-02 01:57:11,2017-12-07 13:50:12,2017-12-12 14:12:18,10.510497685185186,269.9,Late,-18.908315476542242,-48.29923812031853,uberlandia,MG,38400
132f1e724165a07f6362532bfb97486e,2017-04-25 01:25:34,2017-05-08 20:32:41,,,169.9,Not Delivered Yet,-23.552119246465427,-46.42786106411219,sao paulo,SP,8255
da876db1c81523a33b4c05cd13a3959e,2018-02-22 22:49:27,2018-02-28 23:07:41,2018-03-15 18:49:39,20.833472222222223,240.0,Late,-24.953117586704565,-53.462089467107184,cascavel,PR,85810
a7e6fba3426b2524d4ae03c6bcd147ee,2017-11-20 22:30:23,2017-11-26 22:38:50,2017-11-29 00:53:33,8.099421296296295,750.0,Late,-22.978122203156605,-43.22806348415963,rio de janeiro,RJ,22451
2fb5944fe8b440b6b1e35e1a05eb92cf,2017-11-09 23:55:05,2017-11-17 01:46:36,2017-12-03 14:23:09,23.602824074074075,199.0,Late,-22.933233408275118,-43.24385725604473,rio de janeiro,RJ,20511
888145bee8f63a354c8b421852577b73,2018-06-17 11:05:50,2018-06-21 11:15:20,2018-07-25 23:05:32,38.49979166666667,139.9,Late,-22.48035410770875,-44.49448414554025,resende,RJ,27525
1d91296bc62c8df68ebaddb299a5a5da,2017-11-06 09:57:24,2017-11-10 10:10:30,2017-11-21 18:32:26,15.357662037037038,219.9,Late,-22.924177522072778,-43.239820332361944,rio de janeiro,RJ,20540
656e9f797d20f04e930e72b845c05437,2018-08-13 12:39:10,2018-08-20 12:50:15,2018-08-21 14:58:39,8.096863425925926,38.9,Late,-27.59578474493622,-48.54497140215828,florianopolis,SC,88020
78b7280b7eee81ae4e6a623c7c0b1723,2018-01-24 07:55:04,2018-01-30 08:15:58,2018-02-06 21:24:48,13.562314814814815,57.39,Late,-22.985438029141903,-43.22967989884005,rio de janeiro,RJ,22450
adf3d602a987dfaf1a76aed5aee37407,2018-07-29 20:56:13,2018-08-01 21:10:20,2018-07-31 20:38:40,1.9878125,39.99,Quick,-23.691215503563406,-47.023230374122896,cotia,SP,6725
2e21f1cfb4d53ac6710fdd9956f35f54,2017-12-10 19:16:56,2017-12-18 03:51:25,2018-01-05 22:11:22,26.12113425925926,150.0,Late,-1.447999784349909,-48.477929880546846,belem,PA,66060
992b568281203a63ab8a57e90b304eec,2017-04-24 09:29:53,2017-05-04 09:45:13,2017-05-02 18:19:32,8.3678125,34.9,In Time,-20.449536022591776,-54.64739892219052,campo grande,MS,79112
7de9ba0e3bb1b03706d71286a15a2945,2018-01-05 01:02:03,2018-01-11 02:08:49,2018-01-19 00:13:27,13.96625,54.75,Late,-22.867538484236213,-43.38188815781846,rio de janeiro,RJ,21615
48e7963f79e6edc66ff1730ab512fce0,2017-05-01 19:27:31,2017-05-05 19:35:19,2017-05-07 15:22:02,5.829525462962963,729.0,Late,-23.56424814570952,-46.560410266720545,sao paulo,SP,3372
0ebe7b603e2e4b83d9adf9f169585f0d,2017-11-03 14:42:52,2017-11-09 14:55:28,2017-11-18 18:08:44,15.142962962962963,7.5,Late,-23.28917135740806,-47.67508105470301,boituva,SP,18550
9e60724a9f4d8f5d169ee0b5bb7a8a46,2017-06-09 09:51:40,2017-06-15 02:45:51,2017-06-26 13:16:31,17.142256944444444,103.97,Late,-20.30066810188109,-40.29331632405204,vitoria,ES,29055
9115302ab0ba4c1f3499709b47bd00a1,2017-11-03 10:57:36,2017-11-09 11:10:26,2017-11-16 13:58:45,13.125798611111112,29.0,Late,-20.184548482295178,-40.202945933498405,serra,ES,29172
19f05b5a76e0e3f1df1ebaeef9bd2f8d,2018-03-31 20:23:22,2018-04-05 20:15:24,2018-04-04 16:52:41,3.85369212962963,379.0,In Time,-23.664249136274453,-46.691036445178625,sao paulo,SP,4685
dbbfe6ff2cb66699ef8bd6725226c011,2018-05-14 14:57:44,2018-05-21 15:17:38,2018-05-18 21:54:52,4.289675925925926,79.9,In Time,-23.98291719057115,-46.295757399356525,santos,SP,11030
195aef69980a745473d3fa7be3523f58,2017-09-28 11:29:19,2017-10-04 11:44:47,2017-10-06 14:09:57,8.111550925925926,89.9,Late,-22.924353310029364,-43.227661578134885,rio de janeiro,RJ,20520
24c8003803586c800fe8645143192241,2018-04-06 11:32:38,2018-04-12 11:49:15,,,179.0,Not Delivered Yet,-20.15418567732002,-40.184781620961715,serra,ES,29175
0123a055aa66357326dd6db066592a7d,2018-04-24 14:11:16,2018-05-03 03:55:16,2018-04-30 15:47:00,6.066481481481482,53.9,In Time,-20.790418623092076,-49.36437048281391,sao jose do rio preto,SP,15055
33a7b8ae888999afb219263e9a36fb77,2018-08-19 21:37:54,2018-08-22 13:30:46,2018-08-28 00:29:22,8.119074074074074,148.0,Late,-19.494094734260973,-41.0815871386105,aimores,MG,35200
f754fc05a50c00a7a04eb9da5e97c646,2017-12-26 10:21:02,2018-01-03 04:14:40,2017-12-28 15:09:41,2.200451388888889,125.9,Quick,-19.94615776770149,-43.93959669830917,belo horizonte,MG,30330
834780043eaf86f9e26f352161b6dfa8,2017-07-31 23:06:33,2017-08-08 02:55:25,,,79.9,Not Delivered Yet,-22.232360206595168,-45.93212712689681,pouso alegre,MG,37550
4042753ccc5a8c7ab778aa7856ca6230,2018-05-02 00:41:13,2018-05-08 00:56:44,2018-05-08 15:52:49,6.633055555555556,110.0,Late,-22.654806873160595,-50.44381393352187,assis,SP,19806
597310d5c3dc11229fe9221f13489cab,2018-07-31 15:50:04,2018-08-08 02:55:15,2018-08-14 21:42:03,14.244432870370371,478.0,Late,-23.004511196191796,-43.32400361097313,rio de janeiro,RJ,22631
714139cb1b46c8e5aee546ebdb5aeb4d,2017-11-26 22:02:30,2017-11-30 22:13:26,2017-12-06 20:33:56,9.93849537037037,248.99,Late,-15.841264859733416,-48.118141652412234,brasilia,DF,72231
5000db43709b8a1e13f508043ff281c9,2018-04-17 17:08:56,2018-04-26 15:30:53,2018-04-30 22:34:30,13.226087962962962,143.8,Late,-22.905679431040387,-43.09773395337294,niteroi,RJ,24230
f13b840cea352162c91e2b38d2fc89a0,2018-01-12 09:51:27,2018-01-18 09:59:23,2018-01-15 15:21:32,3.229224537037037,43.0,In Time,-23.727980006593274,-46.54370660569994,sao bernardo do campo,SP,9790
6512b3c07826f1163a862a02d2f54351,2017-08-11 14:01:19,2017-08-17 12:35:19,2017-08-31 14:45:59,20.03101851851852,89.9,Late,-16.772749365630794,-47.60631357991043,cristalina,GO,73850
6e35fab28a9f5bb616818cda6eabbd71,2018-06-10 12:09:24,2018-06-13 12:22:41,2018-06-15 16:48:45,5.193993055555556,89.99,Late,-22.806907082982317,-43.201148081597324,rio de janeiro,RJ,21931
1d554a2374156f36bdb7e0e6dbcad2d0,2018-07-19 17:24:35,2018-07-23 17:43:42,2018-08-02 00:17:47,13.286944444444444,250.0,Late,-23.094901571469773,-47.19982267929481,indaiatuba,SP,13339
4d5f4d9f45924156c57a69d5ef886822,2018-04-19 15:03:51,2018-04-25 15:15:20,2018-04-24 01:02:40,4.415844907407408,319.9,In Time,-23.967103343638748,-46.33589288055094,santos,SP,11060
24ae7e308aa3bdd9e0723fe828acdc73,2017-08-12 18:01:32,2017-08-17 18:15:14,2017-08-17 16:35:49,4.940474537037037,675.99,In Time,-20.87718671502704,-47.60019899054977,batatais,SP,14300
228aea2abce77cb021f85db4a81df1bd,2018-03-19 10:10:12,2018-03-23 10:27:16,2018-03-20 16:25:57,1.2609375,29.99,Quick,-23.40382228642737,-46.52973947668647,guarulhos,SP,7144
0c921abc41428f29f1b5d4c52714fe44,2018-03-06 21:47:26,2018-03-12 22:09:27,2018-04-09 20:47:34,33.95842592592592,24.9,Late,-32.0433779949056,-52.11851991067552,rio grande,RS,96211
6f1fd45a62a1568370bee476108eaa18,2017-04-29 06:54:41,2017-05-05 07:05:08,2017-05-09 11:26:53,10.189027777777778,24.9,Late,-23.521967999999994,-51.699278250000006,mandaguari,PR,86975
a22775141b5e773fb0dec808e36bf9f4,2018-08-03 09:47:50,2018-08-07 04:15:37,2018-08-22 23:41:44,19.579097222222224,18.8,Late,-19.777045135041128,-43.02697755855114,nova era,MG,35920
05290ddcf1e8fa2c773e1f37015cc56c,2018-01-14 20:26:05,2018-01-18 20:36:22,2018-01-25 17:58:36,10.897581018518519,45.0,Late,-18.891749067533127,-48.250505029933564,uberlandia,MG,38405
683ec1680537670578142e56f09c58f2,2018-01-08 15:11:15,2018-01-17 15:27:52,2018-01-27 17:33:18,19.098645833333332,89.0,Late,-23.55057068137229,-46.4014394583646,sao paulo,SP,8460
ba58760d97361d60f4af393e41c236cc,2018-02-17 20:47:44,2018-02-22 19:55:55,2018-02-27 15:37:32,9.784583333333334,284.9,Late,-22.878297438361955,-48.43175463994542,botucatu,SP,18601
076d1555fb53a89b0ef4d529e527a0f6,2018-07-30 10:04:21,2018-08-07 04:35:22,2018-08-08 00:46:43,8.61275462962963,2338.08,Late,-23.41900674611008,-51.939499927234934,maringa,PR,87013
d8751e37cdb2166fa6df8a8ebc346768,2017-08-25 15:24:20,2017-08-31 02:24:30,2017-09-14 18:44:47,20.13920138888889,164.9,Late,-19.787219372134306,-42.13357843637557,caratinga,MG,35300
54e78383150f4a775184e7e32ea6ce09,2018-03-02 22:46:35,2018-03-07 22:55:40,2018-03-15 20:05:42,12.888275462962962,119.9,Late,-18.856485956403656,-41.94708263742179,governador valadares,MG,35010
48ac32ed1e21461290225e95370ff81e,2018-03-28 18:42:36,2018-04-03 18:55:21,2018-04-05 01:48:28,7.295740740740741,45.0,Late,-23.028202955005646,-46.97910867154633,vinhedo,SP,13280
b5451d0eb008a4475aeab937ab5f4e0a,2017-03-14 15:05:20,2017-03-20 15:05:20,2017-04-03 10:33:57,19.811539351851852,45.0,Late,-5.2000182150903544,-39.295296638906954,quixeramobim,CE,63800
0d318172edd07ca95c0015267fab29ad,2018-04-29 14:26:30,2018-05-07 05:54:36,2018-05-17 01:33:43,17.463344907407407,64.99,Late,-7.954604444630374,-34.89383623700172,paulista,PE,53407
aa7b6f133145a6afcfa5f103efd4d9df,2018-05-17 09:48:59,2018-05-24 11:23:54,2018-06-08 16:50:12,22.292511574074073,124.9,Late,-21.67495035443471,-49.72470398473654,lins,SP,16402
cd20255d832f391f5913880c91c8ff58,2018-04-12 10:56:09,2018-04-19 12:50:45,2018-04-24 19:02:47,12.337939814814815,54.9,Late,-28.952930645915078,-51.55310411587001,veranopolis,RS,95330
f59598bb404b6266abfc1fc2d18aa79d,2017-02-14 23:11:02,2017-03-06 22:11:02,2017-03-04 10:57:43,17.490752314814817,5.9,In Time,-21.937340463741933,-50.51213791271501,tupa,SP,17600
7aa6b432c4945c7b3aef906c5c3506df,2017-10-14 20:15:22,2017-10-19 21:28:30,2017-10-23 20:18:45,9.002349537037038,29.99,Late,-22.929369418745384,-43.23694358671587,rio de janeiro,RJ,20520
60955f77d741a838580384007152692e,2018-05-11 16:17:34,2018-05-16 16:31:13,2018-05-19 11:28:34,7.799305555555556,69.95,Late,-23.408182475092612,-51.94194852482938,maringa,PR,87020
3f8a2bff65c16d22759ba92a4b7e1912,2017-07-12 20:50:34,2017-07-18 21:03:13,2017-07-19 18:43:31,6.911770833333334,89.9,Late,-21.526666114419868,-49.860892882675564,promissao,SP,16370
cb76d29d166fc17f9cedf3416285a80c,2018-02-27 01:52:55,2018-03-05 02:30:52,2018-03-11 15:42:51,12.576342592592592,126.0,Late,-22.880464920368542,-43.359780748575155,rio de janeiro,RJ,21330
dd7a24d1088cf9ed90329fb0dee088f4,2017-06-27 16:51:49,2017-07-03 17:05:15,2017-06-29 17:12:17,2.014212962962963,249.0,Quick,-22.422701329553806,-47.57435900318477,rio claro,SP,13503
bdc8e349078c5028fba22d1da1066974,2018-07-31 23:25:20,2018-08-02 23:44:07,2018-08-03 18:48:54,2.8080324074074072,59.99,Late,-23.548066710802658,-46.54405460505509,sao paulo,SP,3431
7e7671e9ee6e72a8ccc841c1bec954b1,2018-03-31 15:00:22,2018-04-05 15:15:13,2018-04-05 18:19:24,5.138217592592593,104.0,Late,-24.179281312799322,-46.831077995008336,itanhaem,SP,11740
52bd968ba85e19e47b9d5f939e4a4b24,2017-12-01 13:39:54,2017-12-07 02:38:32,2017-12-15 23:38:33,14.415729166666667,76.96,Late,-22.69772469830918,-46.998338982514866,jaguariuna,SP,13820
627c1c31327bda6f11b5e7c613f1d366,2017-07-10 19:32:51,2017-07-14 19:45:15,2017-07-17 17:13:45,6.903402777777778,21.99,Late,-22.952884139044414,-43.176919048992985,rio de janeiro,RJ,22290
b3b6a35d33a79057c835f4d65c03a2ea,2017-08-17 15:24:09,2017-08-23 16:04:58,2017-09-11 20:47:26,25.224502314814814,69.9,Late,-17.743201158398705,-48.62713557102754,caldas novas,GO,75690
61c52217b9686dbe5382a3affae85cfc,2018-07-06 13:29:24,2018-07-10 13:51:27,2018-07-27 21:31:26,21.33474537037037,55.0,Late,-9.560315803450733,-35.78942895647722,maceio,AL,57073
